{"type":"FeatureCollection","features":[{"type":"Feature","id":10482,"geometry":{"type":"Point","coordinates":[35.701024000193684,34.175244000289524]},"properties":{"objectid":10482,"pcode":"LBNs005762","iso3":"LBN","name":"Ghalboun","name_alt":null,"loc_type":33,"loc_subtype":null,"createdate":1430956800000,"createby":"saint@unhcr.org","closedate":null,"updatedate":1594822558000,"updateby":"ORAND","source":"GR14","unhcr_assist":null,"footnote":"20LBN003001","comments":"Addition following the GR14 survey","status":1,"globalid":"{2B0E4977-8FBA-4951-B816-D8AF2D9E8A9C}"}},{"type":"Feature","id":19591,"geometry":{"type":"Point","coordinates":[35.694997999758201,34.200479000204233]},"properties":{"objectid":19591,"pcode":"LBNs006173","iso3":"LBN","name":"Mansouriye","name_alt":null,"loc_type":33,"loc_subtype":null,"createdate":1465084800000,"createby":"saint@unhcr.org","closedate":null,"updatedate":1594823387000,"updateby":"ORAND","source":"GR15","unhcr_assist":null,"footnote":"20LBN005005","comments":null,"status":1,"globalid":"{A5FC281A-DC60-4470-BA41-74FE4FD7C031}"}},{"type":"Feature","id":19966,"geometry":{"type":"Point","coordinates":[36.015747000185314,34.403958999864727]},"properties":{"objectid":19966,"pcode":"LBNs006265","iso3":"LBN","name":"Mjadel","name_alt":null,"loc_type":33,"loc_subtype":null,"createdate":1465084800000,"createby":"saint@unhcr.org","closedate":null,"updatedate":1594823408000,"updateby":"ORAND","source":"GR15","unhcr_assist":null,"footnote":"20LBN005001","comments":null,"status":1,"globalid":"{143371D2-4534-48A0-B77F-9170F5F6740E}"}},{"type":"Feature","id":2007,"geometry":{"type":"Point","coordinates":[27.680000002175593,-3.1799999997903692]},"properties":{"objectid":2007,"pcode":"CODs003869","iso3":"COD","name":"Sud Kivu dispersé","name_alt":null,"loc_type":31,"loc_subtype":null,"createdate":1225324800000,"createby":null,"closedate":null,"updatedate":1594823481000,"updateby":"ORAND","source":"UNHCR","unhcr_assist":null,"footnote":"20COD062025","comments":null,"status":1,"globalid":"{3F2DDC7A-D212-40D4-B12E-B0AB204BFE64}"}},{"type":"Feature","id":19197,"geometry":{"type":"Point","coordinates":[35.897657999720764,34.106428000248989]},"properties":{"objectid":19197,"pcode":"LBNs005798","iso3":"LBN","name":"Hamlaya","name_alt":null,"loc_type":33,"loc_subtype":null,"createdate":1465084800000,"createby":"saint@unhcr.org","closedate":null,"updatedate":1594823303000,"updateby":"ORAND","source":"GR15","unhcr_assist":null,"footnote":"20LBN003001","comments":null,"status":1,"globalid":"{14557CA6-B28D-4E6C-B0AD-38EC1453D0AC}"}},{"type":"Feature","id":12176,"geometry":{"type":"Point","coordinates":[35.706823999775075,34.072175000198634]},"properties":{"objectid":12176,"pcode":"LBNs006277","iso3":"LBN","name":"Mradiye","name_alt":null,"loc_type":33,"loc_subtype":null,"createdate":1430956800000,"createby":"saint@unhcr.org","closedate":null,"updatedate":1594822558000,"updateby":"ORAND","source":"GR14","unhcr_assist":null,"footnote":"20LBN003002","comments":"Addition following the GR14 survey","status":1,"globalid":"{47307B87-882B-48B2-A2CB-F2DBFC5A81CA}"}},{"type":"Feature","id":11720,"geometry":{"type":"Point","coordinates":[35.462753000111078,33.273561000285063]},"properties":{"objectid":11720,"pcode":"LBNs006378","iso3":"LBN","name":"Qantara","name_alt":null,"loc_type":33,"loc_subtype":null,"createdate":1430956800000,"createby":"saint@unhcr.org","closedate":null,"updatedate":1594822558000,"updateby":"ORAND","source":"GR14","unhcr_assist":null,"footnote":"20LBN004003","comments":"Addition following the GR14 survey","status":1,"globalid":"{2015739F-4EBA-425E-98BD-A47AF76586A7}"}},{"type":"Feature","id":18903,"geometry":{"type":"Point","coordinates":[36.125868999600179,34.477492000148203]},"properties":{"objectid":18903,"pcode":"LBNs006017","iso3":"LBN","name":"Kfar Habou","name_alt":null,"loc_type":33,"loc_subtype":null,"createdate":1465084800000,"createby":"saint@unhcr.org","closedate":null,"updatedate":1594823368000,"updateby":"ORAND","source":"GR15","unhcr_assist":null,"footnote":"20LBN007001","comments":null,"status":1,"globalid":"{152B4C83-A275-4E91-A2F4-ED45A8DB6B34}"}},{"type":"Feature","id":11392,"geometry":{"type":"Point","coordinates":[35.450233000333263,33.520017000096722]},"properties":{"objectid":11392,"pcode":"LBNs005855","iso3":"LBN","name":"Hassaniye","name_alt":null,"loc_type":33,"loc_subtype":null,"createdate":1430956800000,"createby":"saint@unhcr.org","closedate":null,"updatedate":1594822558000,"updateby":"ORAND","source":"GR14","unhcr_assist":null,"footnote":"20LBN006001","comments":"Addition following the GR14 survey","status":1,"globalid":"{E0DF6267-722A-4862-A298-CA31E3781564}"}},{"type":"Feature","id":18979,"geometry":{"type":"Point","coordinates":[36.014850000034777,34.582218999759071]},"properties":{"objectid":18979,"pcode":"LBNs005975","iso3":"LBN","name":"Kafra","name_alt":null,"loc_type":33,"loc_subtype":null,"createdate":1465084800000,"createby":"saint@unhcr.org","closedate":null,"updatedate":1594823353000,"updateby":"ORAND","source":"GR15","unhcr_assist":null,"footnote":"20LBN007001","comments":null,"status":1,"globalid":"{A272C967-DB7E-4C7F-BA6E-EA20289B489B}"}},{"type":"Feature","id":27598,"geometry":{"type":"Point","coordinates":[97.013799999816001,25.383465999730088]},"properties":{"objectid":27598,"pcode":"MMRs035152","iso3":"MMR","name":"St.Francis RCC 2","name_alt":"Lan Gwa St. Paul RC Ch.","loc_type":15,"loc_subtype":null,"createdate":1541635200000,"createby":"orand@unhcr.org","closedate":null,"updatedate":1595510535000,"updateby":"ORAND","source":"MMR001CMP260","unhcr_assist":1,"footnote":null,"comments":null,"status":1,"globalid":"{D98AD219-F5F0-426F-A732-BC6828977058}"}},{"type":"Feature","id":27597,"geometry":{"type":"Point","coordinates":[97.010629909857016,25.370330525799243]},"properties":{"objectid":27597,"pcode":"MMRs035154","iso3":"MMR","name":"St.Francis RCC 1","name_alt":"Myo Oo St. Dominic RC Ch.","loc_type":15,"loc_subtype":null,"createdate":1541635200000,"createby":"orand@unhcr.org","closedate":null,"updatedate":1595510474000,"updateby":"ORAND","source":"MMR001CMP259","unhcr_assist":1,"footnote":null,"comments":null,"status":1,"globalid":"{069D34C3-8BC3-4F94-B706-DD2F6940192B}"}},{"type":"Feature","id":24916,"geometry":{"type":"Point","coordinates":[96.793999999603642,25.225000000070782]},"properties":{"objectid":24916,"pcode":"MMRs032374","iso3":"MMR","name":"Sar Hmaw - KBC","name_alt":null,"loc_type":15,"loc_subtype":null,"createdate":1496016000000,"createby":"saint@unhcr.org","closedate":1588291200000,"updatedate":1595578823000,"updateby":"ORAND","source":"MMR001CMP236","unhcr_assist":null,"footnote":null,"comments":null,"status":1,"globalid":"{BD24CF55-C47F-4196-A4C9-29DF0841DE92}"}},{"type":"Feature","id":26887,"geometry":{"type":"Point","coordinates":[98.115810000273285,24.087379999967531]},"properties":{"objectid":26887,"pcode":"MMRs035148","iso3":"MMR","name":"Hpai Kawng","name_alt":null,"loc_type":15,"loc_subtype":null,"createdate":1525824000000,"createby":"orand@unhcr.org","closedate":1588291200000,"updatedate":1595581616000,"updateby":"ORAND","source":"MMR015CMP247","unhcr_assist":1,"footnote":null,"comments":null,"status":1,"globalid":"{CF45945E-45E7-4CA0-A678-5F6A71381D14}"}},{"type":"Feature","id":26813,"geometry":{"type":"Point","coordinates":[28.651863570981465,-12.956936376430381]},"properties":{"objectid":26813,"pcode":"ZMBs034148","iso3":"ZMB","name":"Ndola","name_alt":null,"loc_type":39,"loc_subtype":null,"createdate":1517356800000,"createby":"orand@unhcr.org","closedate":1576454400000,"updatedate":1598351482000,"updateby":"ARSENII.SLIEBA","source":"UNHCR","unhcr_assist":1,"footnote":null,"comments":null,"status":1,"globalid":"{6DD3362A-2B86-4A03-A2DD-7660D03FDA8B}"}},{"type":"Feature","id":31169,"geometry":{"type":"Point","coordinates":[43.850505519873956,33.146909999752459]},"properties":{"objectid":31169,"pcode":"IRQs035135","iso3":"IRQ","name":"Unknown name","name_alt":null,"loc_type":15,"loc_subtype":null,"createdate":1584403200000,"createby":"orand@unhcr.org","closedate":null,"updatedate":1606518271000,"updateby":"UNHCR_ADMIN","source":null,"unhcr_assist":null,"footnote":null,"comments":"Al-Anbar \u003e Al-Falluja","status":1,"globalid":"{42FB9D4D-CE4E-4093-BCDF-A117456E4BDB}"}},{"type":"Feature","id":24,"geometry":{"type":"Point","coordinates":[64.278532000187397,29.248081000274095]},"properties":{"objectid":24,"pcode":"PAKs003525","iso3":"PAK","name":"Posti","name_alt":null,"loc_type":35,"loc_subtype":"***","createdate":1202083200000,"createby":null,"closedate":null,"updatedate":1606986208000,"updateby":"IVANC","source":"UNHCR","unhcr_assist":1,"footnote":"Refugee village","comments":"Quetta","status":1,"globalid":"{58BDD849-4207-4D6F-9A6A-02EF2A950319}"}},{"type":"Feature","id":25,"geometry":{"type":"Point","coordinates":[66.904865999890404,30.535606999943582]},"properties":{"objectid":25,"pcode":"PAKs003526","iso3":"PAK","name":"Saranan","name_alt":null,"loc_type":35,"loc_subtype":"***","createdate":1202083200000,"createby":null,"closedate":null,"updatedate":1606986208000,"updateby":"IVANC","source":"UNHCR","unhcr_assist":1,"footnote":"Refugee village","comments":"Quetta","status":1,"globalid":"{4353F6A6-CB4E-4CED-BAF8-C8755FDA6EB6}"}},{"type":"Feature","id":26,"geometry":{"type":"Point","coordinates":[67.088408000077436,30.584362999845851]},"properties":{"objectid":26,"pcode":"PAKs003527","iso3":"PAK","name":"Surkhab","name_alt":null,"loc_type":35,"loc_subtype":"***","createdate":1202083200000,"createby":null,"closedate":null,"updatedate":1606986208000,"updateby":"IVANC","source":"UNHCR","unhcr_assist":1,"footnote":"Refugee village","comments":"Quetta","status":1,"globalid":"{A40AEEC1-7667-482C-8CE9-4055F3ED6559}"}},{"type":"Feature","id":27,"geometry":{"type":"Point","coordinates":[68.433778999645895,30.453032000125368]},"properties":{"objectid":27,"pcode":"PAKs003528","iso3":"PAK","name":"Zar Karez","name_alt":null,"loc_type":35,"loc_subtype":"***","createdate":1202083200000,"createby":null,"closedate":null,"updatedate":1606986208000,"updateby":"IVANC","source":"UNHCR","unhcr_assist":1,"footnote":"Refugee village","comments":"Quetta","status":1,"globalid":"{4C5FF8C2-8E13-4991-81DA-1052AC36BD6F}"}},{"type":"Feature","id":32,"geometry":{"type":"Point","coordinates":[14.289799999661156,6.519950000079012]},"properties":{"objectid":32,"pcode":"CMRs004038","iso3":"CMR","name":"Meiganga","name_alt":null,"loc_type":33,"loc_subtype":"***","createdate":1266969600000,"createby":null,"closedate":null,"updatedate":1606986208000,"updateby":"IVANC","source":"UNHCR","unhcr_assist":1,"footnote":"RE-2014-CAF","comments":"Adamaoua","status":1,"globalid":"{1398789D-6A04-4734-879E-5F990D72EAD3}"}},{"type":"Feature","id":34,"geometry":{"type":"Point","coordinates":[33.586669999625251,-16.15639000028461]},"properties":{"objectid":34,"pcode":"MOZs003314","iso3":"MOZ","name":"Tete","name_alt":null,"loc_type":39,"loc_subtype":"***","createdate":1165536000000,"createby":null,"closedate":null,"updatedate":1606986208000,"updateby":"IVANC","source":"UNHCR","unhcr_assist":1,"footnote":null,"comments":null,"status":1,"globalid":"{A67B878A-89FE-454A-A30C-425A5ADC5723}"}},{"type":"Feature","id":39,"geometry":{"type":"Point","coordinates":[43.777766999940944,37.574669999975789]},"properties":{"objectid":39,"pcode":"TURs003399","iso3":"TUR","name":"Hakkâri","name_alt":null,"loc_type":39,"loc_subtype":"***","createdate":1165536000000,"createby":null,"closedate":null,"updatedate":1606986208000,"updateby":"IVANC","source":"UNHCR","unhcr_assist":1,"footnote":"Not in South east region","comments":null,"status":1,"globalid":"{FB9713FA-90DC-4BF6-BFA3-CB1BA5C984E1}"}},{"type":"Feature","id":42,"geometry":{"type":"Point","coordinates":[70.238199999675629,32.148800000292695]},"properties":{"objectid":42,"pcode":"PAKs003451","iso3":"PAK","name":"Dabara","name_alt":null,"loc_type":35,"loc_subtype":"***","createdate":1202083200000,"createby":null,"closedate":null,"updatedate":1606986208000,"updateby":"IVANC","source":"UNHCR","unhcr_assist":1,"footnote":"Refugee village","comments":"Peshawar","status":1,"globalid":"{2FAFAC50-1F7D-4F17-8CC0-8ABCF65A18C3}"}},{"type":"Feature","id":45,"geometry":{"type":"Point","coordinates":[32.357383000333037,-20.2619109999278]},"properties":{"objectid":45,"pcode":"ZWEs002069","iso3":"ZWE","name":"Tongogara","name_alt":null,"loc_type":29,"loc_subtype":"***","createdate":883612800000,"createby":null,"closedate":null,"updatedate":1606986208000,"updateby":"IVANC","source":"UNHCR","unhcr_assist":1,"footnote":"Chipinge","comments":null,"status":1,"globalid":"{0CDD91CE-6CD3-466C-B04F-B06D63DA6852}"}},{"type":"Feature","id":48,"geometry":{"type":"Point","coordinates":[-11.706388999928317,7.8655559998764843]},"properties":{"objectid":48,"pcode":"SLEs002314","iso3":"SLE","name":"Gondama","name_alt":null,"loc_type":33,"loc_subtype":"***","createdate":1036972800000,"createby":null,"closedate":null,"updatedate":1606986208000,"updateby":"IVANC","source":"UNHCR","unhcr_assist":null,"footnote":null,"comments":null,"status":1,"globalid":"{102B8730-7FCA-48F7-A136-446AFD363F00}"}},{"type":"Feature","id":75,"geometry":{"type":"Point","coordinates":[29.766510000063906,-4.3556899997988889]},"properties":{"objectid":75,"pcode":"BDIs003970","iso3":"BDI","name":"Gitara","name_alt":null,"loc_type":47,"loc_subtype":"***","createdate":1244073600000,"createby":null,"closedate":null,"updatedate":1606986208000,"updateby":"IVANC","source":"UNHCR","unhcr_assist":null,"footnote":"","comments":"Returnees transit center","status":1,"globalid":"{B8354FD0-3841-4880-87A1-E23E8806DCAE}"}},{"type":"Feature","id":88,"geometry":{"type":"Point","coordinates":[-7.7649999999122485,11.316999999712838]},"properties":{"objectid":88,"pcode":"MLIs002346","iso3":"MLI","name":"Faragouaran","name_alt":null,"loc_type":33,"loc_subtype":"***","createdate":1010620800000,"createby":null,"closedate":null,"updatedate":1606986208000,"updateby":"IVANC","source":"UNHCR","unhcr_assist":null,"footnote":null,"comments":null,"status":1,"globalid":"{E41FC50B-BEA7-4E84-B51C-7998B511A29B}"}},{"type":"Feature","id":93,"geometry":{"type":"Point","coordinates":[96.922620000449569,25.305670000623508]},"properties":{"objectid":93,"pcode":"MMRs004481","iso3":"MMR","name":"Kyun Taw Bapt. Ch.","name_alt":null,"loc_type":15,"loc_subtype":"***","createdate":1356998400000,"createby":"orand@unhcr.org","closedate":null,"updatedate":1606986208000,"updateby":"IVANC","source":"MMR001CMP078","unhcr_assist":null,"footnote":null,"comments":null,"status":1,"globalid":"{9D205D0B-D9C8-4A0D-8D7C-5669CC59D34D}"}},{"type":"Feature","id":108,"geometry":{"type":"Point","coordinates":[97.345000080208621,25.351999997090143]},"properties":{"objectid":108,"pcode":"MMRs004497","iso3":"MMR","name":"Nawng Hee Vill.","name_alt":null,"loc_type":15,"loc_subtype":"***","createdate":1356998400000,"createby":"orand@unhcr.org","closedate":null,"updatedate":1606986208000,"updateby":"IVANC","source":"MMR001CMP033","unhcr_assist":null,"footnote":null,"comments":null,"status":1,"globalid":"{1214415C-DC61-40F6-B820-6D76351A166A}"}},{"type":"Feature","id":116,"geometry":{"type":"Point","coordinates":[97.404195925905015,25.321710740991374]},"properties":{"objectid":116,"pcode":"MMRs004517","iso3":"MMR","name":"Hkat Cho","name_alt":null,"loc_type":15,"loc_subtype":"***","createdate":1356998400000,"createby":"orand@unhcr.org","closedate":null,"updatedate":1606986208000,"updateby":"IVANC","source":"MMR001CMP028","unhcr_assist":null,"footnote":null,"comments":null,"status":1,"globalid":"{B9B670F9-B12D-433D-A690-029D6EF37AB9}"}},{"type":"Feature","id":117,"geometry":{"type":"Point","coordinates":[97.403402307470643,25.35101679482878]},"properties":{"objectid":117,"pcode":"MMRs004518","iso3":"MMR","name":"Le Kone Ziun Bapt.Ch.","name_alt":null,"loc_type":15,"loc_subtype":"***","createdate":1356998400000,"createby":"orand@unhcr.org","closedate":null,"updatedate":1606986208000,"updateby":"IVANC","source":"MMR001CMP014","unhcr_assist":null,"footnote":null,"comments":null,"status":1,"globalid":"{0C615FAC-64E2-4031-B446-F80A091704A2}"}},{"type":"Feature","id":121,"geometry":{"type":"Point","coordinates":[97.419399840223548,25.440899952246063]},"properties":{"objectid":121,"pcode":"MMRs004523","iso3":"MMR","name":"Shwe Set Bapt. C.","name_alt":null,"loc_type":15,"loc_subtype":"***","createdate":1356998400000,"createby":"orand@unhcr.org","closedate":null,"updatedate":1606986208000,"updateby":"IVANC","source":"MMR001CMP009","unhcr_assist":null,"footnote":null,"comments":null,"status":1,"globalid":"{5FE44A3E-F976-4AB1-B596-E102618D3937}"}},{"type":"Feature","id":127,"geometry":{"type":"Point","coordinates":[97.434855869421455,25.411800579983066]},"properties":{"objectid":127,"pcode":"MMRs004529","iso3":"MMR","name":"Maina KBC (Bawng Ring)","name_alt":null,"loc_type":15,"loc_subtype":"***","createdate":1356998400000,"createby":"orand@unhcr.org","closedate":null,"updatedate":1606986208000,"updateby":"IVANC","source":"MMR001CMP040","unhcr_assist":null,"footnote":null,"comments":null,"status":1,"globalid":"{A6CA465C-BCC9-4057-8C88-F53B9BAD1882}"}},{"type":"Feature","id":130,"geometry":{"type":"Point","coordinates":[97.437472666335694,25.345918166267889]},"properties":{"objectid":130,"pcode":"MMRs004530","iso3":"MMR","name":"Qtr. 3 Mu-yin Bapt. C.","name_alt":null,"loc_type":15,"loc_subtype":"***","createdate":1356998400000,"createby":"orand@unhcr.org","closedate":null,"updatedate":1606986208000,"updateby":"IVANC","source":"MMR001CMP030","unhcr_assist":null,"footnote":null,"comments":null,"status":1,"globalid":"{BA1AA928-EB55-4739-A491-6A9AB2E667F4}"}},{"type":"Feature","id":133,"geometry":{"type":"Point","coordinates":[97.438432380571157,25.351725000331442]},"properties":{"objectid":133,"pcode":"MMRs004533","iso3":"MMR","name":"Qtr. 2 Myoma Bapt. C.","name_alt":null,"loc_type":15,"loc_subtype":"***","createdate":1356998400000,"createby":"orand@unhcr.org","closedate":null,"updatedate":1606986208000,"updateby":"IVANC","source":"MMR001CMP025","unhcr_assist":null,"footnote":null,"comments":null,"status":1,"globalid":"{B8A089BD-E614-4A2C-AF89-5602F4076E28}"}},{"type":"Feature","id":136,"geometry":{"type":"Point","coordinates":[97.451964999964801,25.356632000208521]},"properties":{"objectid":136,"pcode":"MMRs004536","iso3":"MMR","name":"Mading Bapt. Ch.","name_alt":null,"loc_type":15,"loc_subtype":"***","createdate":1356998400000,"createby":"orand@unhcr.org","closedate":null,"updatedate":1606986208000,"updateby":"IVANC","source":"MMR001CMP027","unhcr_assist":null,"footnote":null,"comments":null,"status":1,"globalid":"{482C983C-3760-4999-A99C-C61972018618}"}},{"type":"Feature","id":138,"geometry":{"type":"Point","coordinates":[97.537100039951639,24.460999945123895]},"properties":{"objectid":138,"pcode":"MMRs004538","iso3":"MMR","name":"Dum Bung","name_alt":null,"loc_type":15,"loc_subtype":"***","createdate":1356998400000,"createby":"orand@unhcr.org","closedate":null,"updatedate":1606986208000,"updateby":"IVANC","source":"MMR001CMP123","unhcr_assist":null,"footnote":null,"comments":null,"status":1,"globalid":"{D0D4C28C-0613-4758-815C-B5B2D0E22379}"}},{"type":"Feature","id":153,"geometry":{"type":"Point","coordinates":[97.751300039700837,24.831899946163272]},"properties":{"objectid":153,"pcode":"MMRs004562","iso3":"MMR","name":"Pajau-Jan Mai","name_alt":null,"loc_type":15,"loc_subtype":"***","createdate":1356998400000,"createby":"orand@unhcr.org","closedate":null,"updatedate":1606986208000,"updateby":"IVANC","source":"MMR001CMP120","unhcr_assist":null,"footnote":null,"comments":null,"status":1,"globalid":"{ABBE5EC9-66D1-4AF3-918E-E162A402D21D}"}},{"type":"Feature","id":154,"geometry":{"type":"Point","coordinates":[97.752599999833308,24.274400075676819]},"properties":{"objectid":154,"pcode":"MMRs004563","iso3":"MMR","name":"Pa Kahtawng","name_alt":null,"loc_type":15,"loc_subtype":"***","createdate":1356998400000,"createby":"orand@unhcr.org","closedate":null,"updatedate":1606986208000,"updateby":"IVANC","source":"MMR001CMP126","unhcr_assist":null,"footnote":null,"comments":null,"status":1,"globalid":"{2D79B99C-F458-4749-92FF-29F75AB95E75}"}},{"type":"Feature","id":168,"geometry":{"type":"Point","coordinates":[31.277128999501166,3.2531349998662318]},"properties":{"objectid":168,"pcode":"UGAs990098","iso3":"UGA","name":"Imvepi RC","name_alt":null,"loc_type":37,"loc_subtype":"***","createdate":1490745600000,"createby":"chatelli@unhcr.org","closedate":null,"updatedate":1606986208000,"updateby":"IVANC","source":"UNHCR","unhcr_assist":null,"footnote":null,"comments":"Reception centre","status":1,"globalid":"{B5ABBC96-47FA-442D-9CC6-2A1BB7124BEF}"}},{"type":"Feature","id":171,"geometry":{"type":"Point","coordinates":[14.394299999769865,5.669729999869042]},"properties":{"objectid":171,"pcode":"CMRs004032","iso3":"CMR","name":"Nandoungue","name_alt":null,"loc_type":33,"loc_subtype":"***","createdate":1266969600000,"createby":null,"closedate":null,"updatedate":1606986208000,"updateby":"IVANC","source":"UNHCR","unhcr_assist":null,"footnote":"RE-2014-CAF","comments":null,"status":1,"globalid":"{38E96B53-4DCE-4F11-ABB1-C02FC74EAF7A}"}},{"type":"Feature","id":234,"geometry":{"type":"Point","coordinates":[-7.3599321597822653,4.4242498194409317]},"properties":{"objectid":234,"pcode":"CIVs003003","iso3":"CIV","name":"Tabou","name_alt":null,"loc_type":39,"loc_subtype":"***","createdate":1204070400000,"createby":null,"closedate":null,"updatedate":1606986208000,"updateby":"IVANC","source":"UNHCR","unhcr_assist":null,"footnote":null,"comments":null,"status":1,"globalid":"{B636E4D6-4C37-4DBE-AFA1-FBE7F61957E3}"}},{"type":"Feature","id":261,"geometry":{"type":"Point","coordinates":[71.583299999980781,33.933300000142196]},"properties":{"objectid":261,"pcode":"PAKs001275","iso3":"PAK","name":"Badaber","name_alt":null,"loc_type":35,"loc_subtype":"***","createdate":1171497600000,"createby":null,"closedate":null,"updatedate":1606986208000,"updateby":"IVANC","source":"UNHCR","unhcr_assist":1,"footnote":"Refugee village","comments":"Peshawar","status":1,"globalid":"{242CEFAA-918D-413E-9F98-BE47E52C85A9}"}},{"type":"Feature","id":265,"geometry":{"type":"Point","coordinates":[15.111000000205189,3.9324282703873426]},"properties":{"objectid":265,"pcode":"CMRs005230","iso3":"CMR","name":"Gari Gombo","name_alt":null,"loc_type":33,"loc_subtype":"***","createdate":1421971200000,"createby":"chatelli@unhcr.org","closedate":null,"updatedate":1606986208000,"updateby":"IVANC","source":"UNHCR","unhcr_assist":null,"footnote":"RE-2014-CAF","comments":null,"status":1,"globalid":"{36E8EBD5-8B54-4BEF-B8DA-F1F373CDC91B}"}},{"type":"Feature","id":328,"geometry":{"type":"Point","coordinates":[42.116956000155334,38.399658000197938]},"properties":{"objectid":328,"pcode":"TURs004182","iso3":"TUR","name":"Bitlis","name_alt":null,"loc_type":39,"loc_subtype":"***","createdate":1331683200000,"createby":"orand@unhcr.org","closedate":null,"updatedate":1606986208000,"updateby":"IVANC","source":"UNHCR","unhcr_assist":null,"footnote":"Not in South east region","comments":null,"status":1,"globalid":"{8CCD74BB-A663-4B44-B914-06D1CCA482FC}"}},{"type":"Feature","id":335,"geometry":{"type":"Point","coordinates":[-0.98811719956812261,14.792655162084422]},"properties":{"objectid":335,"pcode":"BFAs004227","iso3":"BFA","name":"Gountouré-Gnégné","name_alt":null,"loc_type":33,"loc_subtype":"***","createdate":1332979200000,"createby":"orand@unhcr.org","closedate":null,"updatedate":1606986208000,"updateby":"IVANC","source":"UNHCR","unhcr_assist":null,"footnote":null,"comments":null,"status":1,"globalid":"{32540EEB-A188-4D8B-923A-15992ACED8F6}"}},{"type":"Feature","id":336,"geometry":{"type":"Point","coordinates":[97.386699960139083,25.415500075523454]},"properties":{"objectid":336,"pcode":"MMRs004510","iso3":"MMR","name":"Tat Kone Bapt. C.","name_alt":null,"loc_type":15,"loc_subtype":"***","createdate":1356998400000,"createby":"orand@unhcr.org","closedate":null,"updatedate":1606986208000,"updateby":"IVANC","source":"MMR001CMP001","unhcr_assist":null,"footnote":null,"comments":null,"status":1,"globalid":"{BAD9BAFD-0D4F-4E75-95FD-D369F478E576}"}},{"type":"Feature","id":339,"geometry":{"type":"Point","coordinates":[97.407787999468709,24.404876999992666]},"properties":{"objectid":339,"pcode":"MMRs004512","iso3":"MMR","name":"Myo Thit","name_alt":null,"loc_type":19,"loc_subtype":"***","createdate":1356998400000,"createby":"orand@unhcr.org","closedate":null,"updatedate":1606986208000,"updateby":"IVANC","source":"MMR001CMP061","unhcr_assist":null,"footnote":null,"comments":"camp removed from the CCCM list","status":1,"globalid":"{1EE9A000-988B-4FF4-9C8C-68BEB5846827}"}},{"type":"Feature","id":350,"geometry":{"type":"Point","coordinates":[97.382997576153485,25.395974090681744]},"properties":{"objectid":350,"pcode":"MMRs004508","iso3":"MMR","name":"Du Kahtawng Bapt.","name_alt":null,"loc_type":15,"loc_subtype":"***","createdate":1356998400000,"createby":"orand@unhcr.org","closedate":null,"updatedate":1606986208000,"updateby":"IVANC","source":"MMR001CMP010","unhcr_assist":null,"footnote":null,"comments":"camp merged to new camp named Du Kahtawng Baptist","status":1,"globalid":"{89B84595-683B-45AF-99E3-B58DEAF924D2}"}},{"type":"Feature","id":355,"geometry":{"type":"Point","coordinates":[34.785659880452698,10.582179953131764]},"properties":{"objectid":355,"pcode":"ETHs004112","iso3":"ETH","name":"Ad-Damazin","name_alt":"Adimazin","loc_type":37,"loc_subtype":"***","createdate":1317600000000,"createby":"orand@unhcr.org","closedate":null,"updatedate":1606986208000,"updateby":"IVANC","source":"UNHCR","unhcr_assist":null,"footnote":"RE-2013-SSD","comments":"Benishangul-Gumuz","status":1,"globalid":"{8FCF0914-7227-406B-A337-D51DC3577589}"}},{"type":"Feature","id":360,"geometry":{"type":"Point","coordinates":[26.500011120049532,5.3999985485686368]},"properties":{"objectid":360,"pcode":"CAFs004580","iso3":"CAF","name":"Obo","name_alt":null,"loc_type":29,"loc_subtype":"***","createdate":631152000000,"createby":null,"closedate":null,"updatedate":1606986208000,"updateby":"IVANC","source":"UNHCR","unhcr_assist":null,"footnote":null,"comments":" ","status":1,"globalid":"{1EF8CDEA-B404-4C38-A32A-7FAEAD5E8676}"}},{"type":"Feature","id":361,"geometry":{"type":"Point","coordinates":[97.546893999591873,24.755252999892353]},"properties":{"objectid":361,"pcode":"MMRs004541","iso3":"MMR","name":"Woi Chyai","name_alt":null,"loc_type":15,"loc_subtype":"***","createdate":1356998400000,"createby":"orand@unhcr.org","closedate":null,"updatedate":1606986208000,"updateby":"IVANC","source":"MMR001CMP116","unhcr_assist":null,"footnote":null,"comments":null,"status":1,"globalid":"{5318ECA3-8B6A-457B-B39F-BFCC0ED83CDE}"}},{"type":"Feature","id":362,"geometry":{"type":"Point","coordinates":[97.568200079803844,24.688200036399348]},"properties":{"objectid":362,"pcode":"MMRs004542","iso3":"MMR","name":"Je Yang Hka","name_alt":null,"loc_type":15,"loc_subtype":"***","createdate":1356998400000,"createby":"orand@unhcr.org","closedate":null,"updatedate":1606986208000,"updateby":"IVANC","source":"MMR001CMP121","unhcr_assist":null,"footnote":null,"comments":null,"status":1,"globalid":"{763B01B7-6258-4119-ABE5-E2611B9C665F}"}},{"type":"Feature","id":365,"geometry":{"type":"Point","coordinates":[97.573100040234081,24.661499936042222]},"properties":{"objectid":365,"pcode":"MMRs004544","iso3":"MMR","name":"Hpun Lum Yang","name_alt":null,"loc_type":15,"loc_subtype":"***","createdate":1356998400000,"createby":"orand@unhcr.org","closedate":null,"updatedate":1606986208000,"updateby":"IVANC","source":"MMR001CMP122","unhcr_assist":null,"footnote":null,"comments":null,"status":1,"globalid":"{A24E9A8B-E83B-44A3-B95C-8534DDF370FB}"}},{"type":"Feature","id":369,"geometry":{"type":"Point","coordinates":[97.715199959909199,24.980199973415104]},"properties":{"objectid":369,"pcode":"MMRs004556","iso3":"MMR","name":"Maga Yang","name_alt":null,"loc_type":15,"loc_subtype":"***","createdate":1356998400000,"createby":"orand@unhcr.org","closedate":null,"updatedate":1606986208000,"updateby":"IVANC","source":"MMR001CMP119","unhcr_assist":null,"footnote":null,"comments":null,"status":1,"globalid":"{A2D9E325-AE29-4691-84A5-AC4EDFEE36F8}"}},{"type":"Feature","id":370,"geometry":{"type":"Point","coordinates":[0.78291287966677814,14.948983056955438]},"properties":{"objectid":370,"pcode":"NERs004572","iso3":"NER","name":"Koutougou","name_alt":null,"loc_type":33,"loc_subtype":"***","createdate":1358294400000,"createby":"orand@unhcr.org","closedate":null,"updatedate":1606986208000,"updateby":"IVANC","source":"UNHCR","unhcr_assist":null,"footnote":null,"comments":" ","status":1,"globalid":"{C026F965-883E-49AB-A3B7-7D90D5DE1273}"}},{"type":"Feature","id":371,"geometry":{"type":"Point","coordinates":[20.60115542711927,9.3548958023601791]},"properties":{"objectid":371,"pcode":"TCDs080002","iso3":"TCD","name":"Daha 1&2","name_alt":"","loc_type":33,"loc_subtype":"***","createdate":1272240000000,"createby":"sere@unhcr.org","closedate":null,"updatedate":1606986208000,"updateby":"IVANC","source":"UNHCR","unhcr_assist":1,"footnote":null,"comments":"Village hosting CAR refugees","status":1,"globalid":"{1B83AD9A-6D26-48A5-B446-A531DB4D9AF2}"}},{"type":"Feature","id":416,"geometry":{"type":"Point","coordinates":[31.106943999866367,0.37055600001307837]},"properties":{"objectid":416,"pcode":"UGAs001941","iso3":"UGA","name":"Sweswe RC","name_alt":null,"loc_type":37,"loc_subtype":"***","createdate":970531200000,"createby":null,"closedate":null,"updatedate":1606986208000,"updateby":"IVANC","source":"UNHCR","unhcr_assist":null,"footnote":"KYAKA","comments":null,"status":1,"globalid":"{92685235-4A0B-4B89-B69E-2AF00A319411}"}},{"type":"Feature","id":467,"geometry":{"type":"Point","coordinates":[97.433419259364598,25.424529444301484]},"properties":{"objectid":467,"pcode":"MMRs004528","iso3":"MMR","name":"Maina AG Ch.","name_alt":null,"loc_type":15,"loc_subtype":"***","createdate":1356998400000,"createby":"orand@unhcr.org","closedate":null,"updatedate":1606986208000,"updateby":"IVANC","source":"MMR001CMP031","unhcr_assist":null,"footnote":null,"comments":null,"status":1,"globalid":"{CBFCB02D-255E-4AC8-ADA2-3C97457E7DC7}"}},{"type":"Feature","id":573,"geometry":{"type":"Point","coordinates":[13.583611000414027,9.34083299971706]},"properties":{"objectid":573,"pcode":"CMRs003866","iso3":"CMR","name":"Langui","name_alt":null,"loc_type":33,"loc_subtype":"***","createdate":1204329600000,"createby":null,"closedate":null,"updatedate":1606986208000,"updateby":"IVANC","source":"UNHCR","unhcr_assist":null,"footnote":null,"comments":null,"status":1,"globalid":"{EC17B069-4ED4-4B32-B6F4-EF3A518CA3E7}"}},{"type":"Feature","id":575,"geometry":{"type":"Point","coordinates":[-0.7705245603331855,14.780275936745173]},"properties":{"objectid":575,"pcode":"BFAs004240","iso3":"BFA","name":"Gandafabou","name_alt":null,"loc_type":33,"loc_subtype":"***","createdate":1335312000000,"createby":"orand@unhcr.org","closedate":null,"updatedate":1606986208000,"updateby":"IVANC","source":"UNHCR","unhcr_assist":null,"footnote":null,"comments":null,"status":1,"globalid":"{A7984259-72C9-40FF-9502-16B69E37D504}"}},{"type":"Feature","id":581,"geometry":{"type":"Point","coordinates":[-0.64339992026199921,14.825549984564086]},"properties":{"objectid":581,"pcode":"BFAs004226","iso3":"BFA","name":"Fererio","name_alt":null,"loc_type":33,"loc_subtype":"***","createdate":1332979200000,"createby":"orand@unhcr.org","closedate":null,"updatedate":1606986208000,"updateby":"IVANC","source":"UNHCR","unhcr_assist":null,"footnote":null,"comments":null,"status":1,"globalid":"{0B6CC50A-5F3A-493C-9B66-52C9C88E11E0}"}},{"type":"Feature","id":4918,"geometry":{"type":"Point","coordinates":[73.078000000082227,32.755500000320794]},"properties":{"objectid":4918,"pcode":"PAKs003563","iso3":"PAK","name":"Chakwal","name_alt":null,"loc_type":39,"loc_subtype":"***","createdate":null,"createby":null,"closedate":null,"updatedate":1606986208000,"updateby":"IVANC","source":"UNHCR","unhcr_assist":1,"footnote":null,"comments":null,"status":1,"globalid":"{C9504E4B-4DDA-4CCC-B392-BD03C25D63DA}"}},{"type":"Feature","id":863,"geometry":{"type":"Point","coordinates":[20.182722000339577,44.669167000187663]},"properties":{"objectid":863,"pcode":"SRBs000542","iso3":"SRB","name":"Obrenovac (TC)","name_alt":null,"loc_type":37,"loc_subtype":"***","createdate":1036108800000,"createby":null,"closedate":null,"updatedate":1606986208000,"updateby":"IVANC","source":"UNHCR","unhcr_assist":null,"footnote":null,"comments":null,"status":1,"globalid":"{DA78DB56-CDB0-4C0B-8C47-FF2830638BF1}"}},{"type":"Feature","id":886,"geometry":{"type":"Point","coordinates":[22.618305999762438,43.173305999700553]},"properties":{"objectid":886,"pcode":"SRBs000571","iso3":"SRB","name":"Pirot (RC)","name_alt":null,"loc_type":37,"loc_subtype":"***","createdate":1036108800000,"createby":null,"closedate":null,"updatedate":1606986208000,"updateby":"IVANC","source":"UNHCR","unhcr_assist":null,"footnote":"RE-2015-EUR","comments":null,"status":1,"globalid":"{82BC9504-C352-47E9-B5B4-FF7B6DF605BD}"}},{"type":"Feature","id":1129,"geometry":{"type":"Point","coordinates":[21.914139000422058,42.53238899981595]},"properties":{"objectid":1129,"pcode":"SRBs000779","iso3":"SRB","name":"Vranje RC","name_alt":null,"loc_type":27,"loc_subtype":"RCT","createdate":1036108800000,"createby":null,"closedate":null,"updatedate":1606986208000,"updateby":"IVANC","source":"UNHCR","unhcr_assist":null,"footnote":"RE-2015-EUR","comments":null,"status":1,"globalid":"{FFF137AE-D040-40C9-833B-61484FE041DB}"}},{"type":"Feature","id":1439,"geometry":{"type":"Point","coordinates":[20.474421999761066,44.774191999760831]},"properties":{"objectid":1439,"pcode":"SRBs000247","iso3":"SRB","name":"Belgrade (UASC) 1","name_alt":null,"loc_type":27,"loc_subtype":"SCC","createdate":1036108800000,"createby":null,"closedate":null,"updatedate":1606986208000,"updateby":"IVANC","source":"UNHCR","unhcr_assist":null,"footnote":null,"comments":null,"status":1,"globalid":"{FFF50C3F-6307-4B90-B5C7-35BE0AC59CAD}"}},{"type":"Feature","id":1508,"geometry":{"type":"Point","coordinates":[-8.6565489999369145,8.6874140000526676]},"properties":{"objectid":1508,"pcode":"GINs002015","iso3":"GIN","name":"Beyla","name_alt":null,"loc_type":33,"loc_subtype":"***","createdate":1012348800000,"createby":"orand@unhcr.org","closedate":null,"updatedate":1606986208000,"updateby":"IVANC","source":"UNHCR","unhcr_assist":null,"footnote":null,"comments":"Changed to refugee location ","status":1,"globalid":"{B65F6CAF-9BEE-4AFF-8BB9-9F78C99CA780}"}},{"type":"Feature","id":1531,"geometry":{"type":"Point","coordinates":[-12.054722000049649,8.2013889998334744]},"properties":{"objectid":1531,"pcode":"SLEs002043","iso3":"SLE","name":"Taiama","name_alt":null,"loc_type":33,"loc_subtype":"***","createdate":1036972800000,"createby":null,"closedate":null,"updatedate":1606986208000,"updateby":"IVANC","source":"UNHCR","unhcr_assist":null,"footnote":"Kori","comments":null,"status":1,"globalid":"{C63342E2-B22C-4DD2-928E-8BBC131F1A4C}"}},{"type":"Feature","id":1532,"geometry":{"type":"Point","coordinates":[-11.57694399980018,7.9388890001615451]},"properties":{"objectid":1532,"pcode":"SLEs002044","iso3":"SLE","name":"Gerihun","name_alt":null,"loc_type":33,"loc_subtype":"***","createdate":1036972800000,"createby":null,"closedate":null,"updatedate":1606986208000,"updateby":"IVANC","source":"UNHCR","unhcr_assist":null,"footnote":"Boama","comments":null,"status":1,"globalid":"{9142E336-2B99-4A80-B684-C0EE2DD6407E}"}},{"type":"Feature","id":1533,"geometry":{"type":"Point","coordinates":[-11.821944000300075,7.6122220001007008]},"properties":{"objectid":1533,"pcode":"SLEs002047","iso3":"SLE","name":"Jimmi Bagbo","name_alt":null,"loc_type":33,"loc_subtype":"***","createdate":1036972800000,"createby":null,"closedate":null,"updatedate":1606986208000,"updateby":"IVANC","source":"UNHCR","unhcr_assist":null,"footnote":"Bagbo","comments":null,"status":1,"globalid":"{9F99A207-FBB0-4355-8B24-8F9E4BDEADBE}"}},{"type":"Feature","id":1537,"geometry":{"type":"Point","coordinates":[-11.427778000372145,7.9191670001340331]},"properties":{"objectid":1537,"pcode":"SLEs002045","iso3":"SLE","name":"Jembe","name_alt":null,"loc_type":33,"loc_subtype":"***","createdate":1036972800000,"createby":null,"closedate":null,"updatedate":1606986208000,"updateby":"IVANC","source":"UNHCR","unhcr_assist":null,"footnote":"Boama","comments":null,"status":1,"globalid":"{C9766EBD-9DE1-4937-B0A3-06F8234236EB}"}},{"type":"Feature","id":1547,"geometry":{"type":"Point","coordinates":[73.130399999924407,33.375300000212242]},"properties":{"objectid":1547,"pcode":"PAKs003561","iso3":"PAK","name":"Rawalpindi","name_alt":null,"loc_type":39,"loc_subtype":"***","createdate":null,"createby":null,"closedate":null,"updatedate":1606986208000,"updateby":"IVANC","source":"UNHCR","unhcr_assist":1,"footnote":null,"comments":null,"status":1,"globalid":"{AAC1FC11-9772-4BCD-B9C8-C118F593608A}"}},{"type":"Feature","id":1556,"geometry":{"type":"Point","coordinates":[-11.662222000376273,7.571667000121943]},"properties":{"objectid":1556,"pcode":"SLEs002046","iso3":"SLE","name":"Bandajuma","name_alt":null,"loc_type":33,"loc_subtype":"***","createdate":1036972800000,"createby":null,"closedate":null,"updatedate":1606986208000,"updateby":"IVANC","source":"UNHCR","unhcr_assist":null,"footnote":"Sowa","comments":null,"status":1,"globalid":"{83B823C8-42AB-4DDE-A40D-6791B7F17E4C}"}},{"type":"Feature","id":1581,"geometry":{"type":"Point","coordinates":[34.849999999590501,8.1833330000287763]},"properties":{"objectid":1581,"pcode":"ETHs000156","iso3":"ETH","name":"Bonga","name_alt":null,"loc_type":33,"loc_subtype":"***","createdate":694224000000,"createby":null,"closedate":null,"updatedate":1606986208000,"updateby":"IVANC","source":"UNHCR","unhcr_assist":null,"footnote":"Gambella","comments":" ","status":1,"globalid":"{17D20F61-AF0F-442B-8650-6D9E6F473AD4}"}},{"type":"Feature","id":1626,"geometry":{"type":"Point","coordinates":[30.789300000167653,-3.6885900001201324]},"properties":{"objectid":1626,"pcode":"TZAs001529","iso3":"TZA","name":"Nduta","name_alt":null,"loc_type":29,"loc_subtype":"***","createdate":849398400000,"createby":null,"closedate":null,"updatedate":1606986208000,"updateby":"IVANC","source":"UNHCR","unhcr_assist":null,"footnote":"Kibondo","comments":null,"status":1,"globalid":"{6FCC19B0-7152-4283-8765-26F7FBF1FFE4}"}},{"type":"Feature","id":1635,"geometry":{"type":"Point","coordinates":[-11.367500000067036,7.8019439996496178]},"properties":{"objectid":1635,"pcode":"SLEs002313","iso3":"SLE","name":"Tobanda","name_alt":null,"loc_type":33,"loc_subtype":"***","createdate":1204070400000,"createby":null,"closedate":null,"updatedate":1606986208000,"updateby":"IVANC","source":"UNHCR","unhcr_assist":null,"footnote":null,"comments":null,"status":1,"globalid":"{76DE6C42-E772-4529-B9A7-D6856BD583A6}"}},{"type":"Feature","id":1879,"geometry":{"type":"Point","coordinates":[30.887100000171401,-3.4265799996357922]},"properties":{"objectid":1879,"pcode":"TZAs001526","iso3":"TZA","name":"Mtendeli","name_alt":null,"loc_type":29,"loc_subtype":"***","createdate":836179200000,"createby":null,"closedate":null,"updatedate":1606986208000,"updateby":"IVANC","source":"UNHCR","unhcr_assist":null,"footnote":"Kibondo","comments":null,"status":1,"globalid":"{DB6D8B79-212E-4CB2-A6D2-8B7291AB5D51}"}},{"type":"Feature","id":1891,"geometry":{"type":"Point","coordinates":[-11.105833000043729,8.0461109997606179]},"properties":{"objectid":1891,"pcode":"SLEs002236","iso3":"SLE","name":"Largo","name_alt":null,"loc_type":33,"loc_subtype":"***","createdate":1030838400000,"createby":null,"closedate":null,"updatedate":1606986208000,"updateby":"IVANC","source":"UNHCR","unhcr_assist":null,"footnote":null,"comments":null,"status":1,"globalid":"{65B4D623-E240-4AAB-9C7C-B19F9E7475E1}"}},{"type":"Feature","id":2020,"geometry":{"type":"Point","coordinates":[14.287780080252618,5.7419400174075053]},"properties":{"objectid":2020,"pcode":"CMRs004033","iso3":"CMR","name":"Mborguene","name_alt":null,"loc_type":33,"loc_subtype":"***","createdate":1266969600000,"createby":null,"closedate":null,"updatedate":1606986208000,"updateby":"IVANC","source":"UNHCR","unhcr_assist":null,"footnote":"RE-2014-CAF","comments":"updated position","status":1,"globalid":"{FE2459DA-3538-4FE4-8500-7BB74E87195D}"}},{"type":"Feature","id":2172,"geometry":{"type":"Point","coordinates":[-11.43250000005299,14.449400000363294]},"properties":{"objectid":2172,"pcode":"MLIs001123","iso3":"MLI","name":"Kayes","name_alt":null,"loc_type":33,"loc_subtype":"***","createdate":631152000000,"createby":null,"closedate":null,"updatedate":1606986208000,"updateby":"IVANC","source":"UNHCR","unhcr_assist":null,"footnote":null,"comments":null,"status":1,"globalid":"{712E468B-4EF3-4393-B40A-E99B88DC06D2}"}},{"type":"Feature","id":2246,"geometry":{"type":"Point","coordinates":[39.050299999779284,3.5336100000376667]},"properties":{"objectid":2246,"pcode":"ETHs000165","iso3":"ETH","name":"Moyale","name_alt":null,"loc_type":33,"loc_subtype":"***","createdate":567993600000,"createby":null,"closedate":null,"updatedate":1606986208000,"updateby":"IVANC","source":"UNHCR","unhcr_assist":null,"footnote":"Oromiya","comments":" ","status":1,"globalid":"{C64C3B15-FEC1-4FA7-A3FF-4AB8691652D1}"}},{"type":"Feature","id":2257,"geometry":{"type":"Point","coordinates":[48.366100000390325,32.421100000222502]},"properties":{"objectid":2257,"pcode":"IRNs001056","iso3":"IRN","name":"Ansar","name_alt":null,"loc_type":35,"loc_subtype":"***","createdate":662688000000,"createby":null,"closedate":null,"updatedate":1606986208000,"updateby":"IVANC","source":"UNHCR","unhcr_assist":null,"footnote":"Khuzestan","comments":null,"status":1,"globalid":"{8F79EB2A-B520-4724-B6D4-14CF04DDFBBA}"}},{"type":"Feature","id":2259,"geometry":{"type":"Point","coordinates":[47.151000000057131,34.70700000017591]},"properties":{"objectid":2259,"pcode":"IRNs001082","iso3":"IRN","name":"Varmahang","name_alt":null,"loc_type":35,"loc_subtype":"***","createdate":567993600000,"createby":null,"closedate":null,"updatedate":1606986208000,"updateby":"IVANC","source":"UNHCR","unhcr_assist":null,"footnote":"Kurdestan (Kamyaran)","comments":null,"status":1,"globalid":"{E045459A-1F71-47AB-8909-3FBC13E07717}"}},{"type":"Feature","id":2337,"geometry":{"type":"Point","coordinates":[18.674369000308179,45.540223999898657]},"properties":{"objectid":2337,"pcode":"HRVs002489","iso3":"HRV","name":"Osijek","name_alt":null,"loc_type":27,"loc_subtype":"SCC","createdate":1122422400000,"createby":null,"closedate":null,"updatedate":1606986208000,"updateby":"IVANC","source":"UNHCR","unhcr_assist":null,"footnote":"RE-2015-EUR","comments":"Home for children wiht behavioral disorders","status":1,"globalid":"{910F5AEA-7BE3-4740-AD07-FCAD5C96DEFD}"}},{"type":"Feature","id":2385,"geometry":{"type":"Point","coordinates":[20.387533999905212,44.739345000091042]},"properties":{"objectid":2385,"pcode":"SRBs000249","iso3":"SRB","name":"Belgrade (UASC) 2","name_alt":null,"loc_type":27,"loc_subtype":"SCC","createdate":1036108800000,"createby":null,"closedate":null,"updatedate":1606986208000,"updateby":"IVANC","source":"UNHCR","unhcr_assist":null,"footnote":null,"comments":null,"status":1,"globalid":"{EDA20D64-45CB-4329-897A-C3D1A09DC501}"}},{"type":"Feature","id":2549,"geometry":{"type":"Point","coordinates":[-14.221400000292308,13.309699999984284]},"properties":{"objectid":2549,"pcode":"GMBs000822","iso3":"GMB","name":"Basse","name_alt":null,"loc_type":33,"loc_subtype":"***","createdate":788918400000,"createby":null,"closedate":null,"updatedate":1606986208000,"updateby":"IVANC","source":"UNHCR","unhcr_assist":null,"footnote":"Jimara (Upper River Division)","comments":null,"status":1,"globalid":"{7A9CDDDD-57C6-444B-BE12-C197D19F39ED}"}},{"type":"Feature","id":2554,"geometry":{"type":"Point","coordinates":[43.291400999574066,11.96740000020141]},"properties":{"objectid":2554,"pcode":"DJIs000146","iso3":"DJI","name":"Obock","name_alt":null,"loc_type":39,"loc_subtype":"***","createdate":999302400000,"createby":null,"closedate":null,"updatedate":1606986208000,"updateby":"IVANC","source":"UNHCR","unhcr_assist":null,"footnote":"Obock","comments":null,"status":1,"globalid":"{F6F7D947-0108-4391-B14F-BCD36AF07E54}"}},{"type":"Feature","id":2591,"geometry":{"type":"Point","coordinates":[67.007000000135818,24.851999999930854]},"properties":{"objectid":2591,"pcode":"PAKs003322","iso3":"PAK","name":"Karachi","name_alt":null,"loc_type":39,"loc_subtype":"***","createdate":1171497600000,"createby":null,"closedate":null,"updatedate":1606986208000,"updateby":"IVANC","source":"UNHCR","unhcr_assist":null,"footnote":null,"comments":null,"status":1,"globalid":"{CF066B72-94D3-4505-A884-7667E9E74BAD}"}},{"type":"Feature","id":2595,"geometry":{"type":"Point","coordinates":[-1.4701121944935229,12.471225789104174]},"properties":{"objectid":2595,"pcode":"BFAs003156","iso3":"BFA","name":"Ouagadougou","name_alt":null,"loc_type":39,"loc_subtype":"***","createdate":1165536000000,"createby":null,"closedate":null,"updatedate":1606986208000,"updateby":"IVANC","source":"UNHCR","unhcr_assist":null,"footnote":null,"comments":null,"status":1,"globalid":"{5DB482AF-7189-4F59-AE3C-17E9962EAB7D}"}},{"type":"Feature","id":2693,"geometry":{"type":"Point","coordinates":[159.9559999997407,-9.4328700000351748]},"properties":{"objectid":2693,"pcode":"SLBs001465","iso3":"SLB","name":"Honoria","name_alt":null,"loc_type":39,"loc_subtype":"***","createdate":704678400000,"createby":null,"closedate":null,"updatedate":1606986208000,"updateby":"IVANC","source":"UNHCR","unhcr_assist":null,"footnote":null,"comments":null,"status":1,"globalid":"{1759B825-73B4-49B7-9061-CD8CAC8A0974}"}},{"type":"Feature","id":2702,"geometry":{"type":"Point","coordinates":[-5.6727090000142004,11.315309999844356]},"properties":{"objectid":2702,"pcode":"MLIs002667","iso3":"MLI","name":"Sikasso","name_alt":null,"loc_type":33,"loc_subtype":"***","createdate":1082419200000,"createby":null,"closedate":null,"updatedate":1606986208000,"updateby":"IVANC","source":"UNHCR","unhcr_assist":null,"footnote":null,"comments":null,"status":1,"globalid":"{C53A4B39-3200-4AFA-B39D-B15AE025622D}"}},{"type":"Feature","id":2707,"geometry":{"type":"Point","coordinates":[16.250000000083592,45.750000000272671]},"properties":{"objectid":2707,"pcode":"HRVs002518","iso3":"HRV","name":"Jezevo","name_alt":null,"loc_type":37,"loc_subtype":"DCT","createdate":1122422400000,"createby":null,"closedate":null,"updatedate":1606986208000,"updateby":"IVANC","source":"UNHCR","unhcr_assist":null,"footnote":"RE-2015-EUR","comments":null,"status":1,"globalid":"{A38FCFA4-B750-4E35-9916-CFB0D804350A}"}},{"type":"Feature","id":2712,"geometry":{"type":"Point","coordinates":[21.325689000038498,46.190478999881194]},"properties":{"objectid":2712,"pcode":"ROUs002531","iso3":"ROU","name":"Arad","name_alt":null,"loc_type":37,"loc_subtype":"***","createdate":1045440000000,"createby":null,"closedate":null,"updatedate":1606986208000,"updateby":"IVANC","source":"UNHCR","unhcr_assist":null,"footnote":"Arad","comments":"Public custody centre","status":1,"globalid":"{78011727-B5AF-4B44-A7B2-A258C0A82D5E}"}},{"type":"Feature","id":2741,"geometry":{"type":"Point","coordinates":[71.5427000002162,32.595199999897886]},"properties":{"objectid":2741,"pcode":"PAKs003557","iso3":"PAK","name":"Miawali","name_alt":null,"loc_type":33,"loc_subtype":"***","createdate":null,"createby":null,"closedate":null,"updatedate":1606986208000,"updateby":"IVANC","source":"UNHCR","unhcr_assist":1,"footnote":null,"comments":null,"status":1,"globalid":"{D55AAA29-C26B-41D7-968E-31FA7F1E1DFA}"}},{"type":"Feature","id":2743,"geometry":{"type":"Point","coordinates":[97.344360000025986,24.250690000260395]},"properties":{"objectid":2743,"pcode":"MMRs004496","iso3":"MMR","name":"Momauk Bapt. C.","name_alt":null,"loc_type":15,"loc_subtype":"***","createdate":1356998400000,"createby":"orand@unhcr.org","closedate":null,"updatedate":1606986208000,"updateby":"IVANC","source":"MMR001CMP056","unhcr_assist":null,"footnote":null,"comments":null,"status":1,"globalid":"{3A79AD28-D8DA-427B-BB67-882F8792ACE3}"}},{"type":"Feature","id":2783,"geometry":{"type":"Point","coordinates":[-3.9288733633555837,5.4739895566872576]},"properties":{"objectid":2783,"pcode":"CIVs000106","iso3":"CIV","name":"Abidjan","name_alt":null,"loc_type":39,"loc_subtype":"***","createdate":908841600000,"createby":null,"closedate":null,"updatedate":1606986208000,"updateby":"IVANC","source":"UNHCR","unhcr_assist":null,"footnote":null,"comments":"/ Great lakes caseload, Refugees total 85, 000 in these 4 ICO sites, Coordinates taken from Encarta atlas","status":1,"globalid":"{CDA2F02D-B315-4681-82F1-4FE94D46A6F5}"}},{"type":"Feature","id":3603,"geometry":{"type":"Point","coordinates":[141.63800000020049,-6.2708299997816779]},"properties":{"objectid":3603,"pcode":"PNGs003121","iso3":"PNG","name":"Yogi","name_alt":null,"loc_type":35,"loc_subtype":"***","createdate":1165363200000,"createby":null,"closedate":null,"updatedate":1606986208000,"updateby":"IVANC","source":"UNHCR","unhcr_assist":1,"footnote":null,"comments":null,"status":1,"globalid":"{D46FE99A-397F-4BDC-B822-4D8A1565A8CF}"}},{"type":"Feature","id":2831,"geometry":{"type":"Point","coordinates":[44.031895000333378,12.771831999703876]},"properties":{"objectid":2831,"pcode":"YEMs001616","iso3":"YEM","name":"Al Kharaz","name_alt":null,"loc_type":29,"loc_subtype":"***","createdate":942883200000,"createby":null,"closedate":null,"updatedate":1606986208000,"updateby":"IVANC","source":"UNHCR","unhcr_assist":1,"footnote":null,"comments":null,"status":1,"globalid":"{1225D1F7-A1EA-49D6-88EC-585F243CD9A3}"}},{"type":"Feature","id":2849,"geometry":{"type":"Point","coordinates":[45.454999999925889,35.561000000203705]},"properties":{"objectid":2849,"pcode":"IRQs003825","iso3":"IRQ","name":"Sulaymaniyah","name_alt":null,"loc_type":33,"loc_subtype":"***","createdate":1204848000000,"createby":null,"closedate":null,"updatedate":1606986208000,"updateby":"IVANC","source":"UNHCR","unhcr_assist":1,"footnote":"RE-2012-SYR","comments":"Syria Operation","status":1,"globalid":"{344E5B31-220E-4F89-BF76-D31E03EB192C}"}},{"type":"Feature","id":2850,"geometry":{"type":"Point","coordinates":[43.013000000080169,36.862000000142231]},"properties":{"objectid":2850,"pcode":"IRQs003276","iso3":"IRQ","name":"Dohuk","name_alt":null,"loc_type":39,"loc_subtype":"***","createdate":1165536000000,"createby":null,"closedate":null,"updatedate":1606986208000,"updateby":"IVANC","source":"UNHCR","unhcr_assist":1,"footnote":"RE-2012-SYR","comments":"Syria Operation","status":1,"globalid":"{FFE44F7B-E35D-4DA6-AAD4-9C6CB443B474}"}},{"type":"Feature","id":2851,"geometry":{"type":"Point","coordinates":[45.121800000216204,36.477099999712166]},"properties":{"objectid":2851,"pcode":"IRNs001067","iso3":"IRN","name":"Dilzeh","name_alt":null,"loc_type":35,"loc_subtype":"***","createdate":567993600000,"createby":null,"closedate":null,"updatedate":1606986208000,"updateby":"IVANC","source":"UNHCR","unhcr_assist":1,"footnote":"West Azarbaijan (Piranshahr)","comments":"Former RSO","status":1,"globalid":"{71439B94-75DF-4B34-8070-FE1FBA1DB337}"}},{"type":"Feature","id":2852,"geometry":{"type":"Point","coordinates":[53.551099999823293,28.581899999919301]},"properties":{"objectid":2852,"pcode":"IRNs001066","iso3":"IRN","name":"Jahrom","name_alt":null,"loc_type":35,"loc_subtype":"***","createdate":63072000000,"createby":null,"closedate":null,"updatedate":1606986208000,"updateby":"IVANC","source":"UNHCR","unhcr_assist":1,"footnote":"Fars","comments":"Former RSO","status":1,"globalid":"{0AC84599-0542-4E56-A8CF-494BCD939079}"}},{"type":"Feature","id":2853,"geometry":{"type":"Point","coordinates":[55.946399999849085,30.40609999987549]},"properties":{"objectid":2853,"pcode":"IRNs001075","iso3":"IRN","name":"Rafsanjan","name_alt":null,"loc_type":35,"loc_subtype":"***","createdate":441763200000,"createby":null,"closedate":null,"updatedate":1606986208000,"updateby":"IVANC","source":"UNHCR","unhcr_assist":1,"footnote":"Kerman","comments":"Former RSO","status":1,"globalid":"{152FD508-E4EE-4B87-8B08-A5AB7A3FDB1E}"}},{"type":"Feature","id":2854,"geometry":{"type":"Point","coordinates":[50.584678999809569,35.024580000107633]},"properties":{"objectid":2854,"pcode":"IRNs001078","iso3":"IRN","name":"Saveh","name_alt":null,"loc_type":35,"loc_subtype":"***","createdate":567993600000,"createby":null,"closedate":null,"updatedate":1606986208000,"updateby":"IVANC","source":"UNHCR","unhcr_assist":1,"footnote":"Markazi (Saveh)","comments":"Former RSO","status":1,"globalid":"{A30476AC-8A91-464E-A5BD-E1C156ACD87C}"}},{"type":"Feature","id":2855,"geometry":{"type":"Point","coordinates":[48.795455999590494,36.436226999806024]},"properties":{"objectid":2855,"pcode":"IRNs001079","iso3":"IRN","name":"Soltanieh","name_alt":null,"loc_type":35,"loc_subtype":"***","createdate":441763200000,"createby":null,"closedate":null,"updatedate":1606986208000,"updateby":"IVANC","source":"UNHCR","unhcr_assist":1,"footnote":"Zanjan (Abhar)","comments":"Former RSO","status":1,"globalid":"{9ED6A88A-4B92-40F1-8F58-911CD6FE5FFE}"}},{"type":"Feature","id":2856,"geometry":{"type":"Point","coordinates":[47.588899999892064,34.788599999961477]},"properties":{"objectid":2856,"pcode":"IRNs001080","iso3":"IRN","name":"Songhor","name_alt":null,"loc_type":35,"loc_subtype":"***","createdate":567993600000,"createby":null,"closedate":null,"updatedate":1606986208000,"updateby":"IVANC","source":"UNHCR","unhcr_assist":1,"footnote":"Kermanshah","comments":"Former RSO","status":1,"globalid":"{1ADD372B-EAD5-4C91-936D-B27F55AB2DE1}"}},{"type":"Feature","id":2857,"geometry":{"type":"Point","coordinates":[60.619000000022908,35.24400000010754]},"properties":{"objectid":2857,"pcode":"IRNs001081","iso3":"IRN","name":"Torbat-e-Jam","name_alt":null,"loc_type":35,"loc_subtype":"***","createdate":883612800000,"createby":null,"closedate":null,"updatedate":1606986208000,"updateby":"IVANC","source":"UNHCR","unhcr_assist":1,"footnote":"Khorasan","comments":"Former RSO","status":1,"globalid":"{7A001F59-1221-4B32-B195-73E47B1A4100}"}},{"type":"Feature","id":2858,"geometry":{"type":"Point","coordinates":[45.096799999945191,36.707100000016887]},"properties":{"objectid":2858,"pcode":"IRNs001083","iso3":"IRN","name":"Ziveh","name_alt":null,"loc_type":35,"loc_subtype":"***","createdate":220924800000,"createby":null,"closedate":null,"updatedate":1606986208000,"updateby":"IVANC","source":"UNHCR","unhcr_assist":1,"footnote":"West Azarbaijan (Orumieh)","comments":"Former RSO","status":1,"globalid":"{26D83C78-CD4D-450F-BE93-8E0B64408B96}"}},{"type":"Feature","id":2889,"geometry":{"type":"Point","coordinates":[21.941623582665439,14.460339074900315]},"properties":{"objectid":2889,"pcode":"TCDs002650","iso3":"TCD","name":"Kounougou","name_alt":"a","loc_type":29,"loc_subtype":"***","createdate":1143504000000,"createby":"orand@unhcr.org","closedate":null,"updatedate":1606986208000,"updateby":"IVANC","source":"TDDPL0121 - UNHCR","unhcr_assist":1,"footnote":null,"comments":"8000/9000, population 22.04.04/planned capacity","status":1,"globalid":"{8DE4684E-B948-41D3-9650-2D561ABD51B9}"}},{"type":"Feature","id":2898,"geometry":{"type":"Point","coordinates":[21.447085999824402,13.763725000141426]},"properties":{"objectid":2898,"pcode":"TCDs002988","iso3":"TCD","name":"Gaga","name_alt":"a","loc_type":29,"loc_subtype":"***","createdate":1074297600000,"createby":"orand@unhcr.org","closedate":null,"updatedate":1606986208000,"updateby":"IVANC","source":"TDDPL0122 - UNHCR","unhcr_assist":1,"footnote":null,"comments":" ","status":1,"globalid":"{7DD0006F-72F8-497E-9F60-A24C74F0BA0A}"}},{"type":"Feature","id":2899,"geometry":{"type":"Point","coordinates":[34.096699999721423,7.1783300001416599]},"properties":{"objectid":2899,"pcode":"SSDs003040","iso3":"SSD","name":"Pochalla","name_alt":null,"loc_type":33,"loc_subtype":"***","createdate":1144281600000,"createby":null,"closedate":null,"updatedate":1606986208000,"updateby":"IVANC","source":"UNHCR","unhcr_assist":1,"footnote":"South","comments":null,"status":1,"globalid":"{E38AD207-B6FF-4990-A710-C9694CF6B682}"}},{"type":"Feature","id":2902,"geometry":{"type":"Point","coordinates":[27.472099999803334,5.0706100003488785]},"properties":{"objectid":2902,"pcode":"SSDs003044","iso3":"SSD","name":"Ezo","name_alt":null,"loc_type":33,"loc_subtype":"***","createdate":1244505600000,"createby":null,"closedate":null,"updatedate":1606986208000,"updateby":"IVANC","source":"UNHCR","unhcr_assist":1,"footnote":"South","comments":"Change from RLO; South Sudan","status":1,"globalid":"{DF5D86FA-1E24-4D33-AA31-F316A2999B4D}"}},{"type":"Feature","id":2904,"geometry":{"type":"Point","coordinates":[27.462099999874606,5.5985099998508261]},"properties":{"objectid":2904,"pcode":"SSDs003047","iso3":"SSD","name":"Tambura","name_alt":null,"loc_type":33,"loc_subtype":"***","createdate":1244505600000,"createby":"KARIMIB@unhcr.org","closedate":null,"updatedate":1606986208000,"updateby":"IVANC","source":"UNHCR","unhcr_assist":1,"footnote":"South","comments":"South Sudan","status":1,"globalid":"{8809670D-C063-4AE4-8D98-13DDFFE8ADD3}"}},{"type":"Feature","id":2909,"geometry":{"type":"Point","coordinates":[71.48711400035306,32.970362999814711]},"properties":{"objectid":2909,"pcode":"PAKs003068","iso3":"PAK","name":"Kot Chandna","name_alt":null,"loc_type":35,"loc_subtype":"***","createdate":820454400000,"createby":null,"closedate":null,"updatedate":1606986208000,"updateby":"IVANC","source":"UNHCR","unhcr_assist":1,"footnote":"Refugee village","comments":"Peshawar","status":1,"globalid":"{1FCD9195-D519-4DD0-8D55-D35371281953}"}},{"type":"Feature","id":2918,"geometry":{"type":"Point","coordinates":[22.56193277836806,12.680049999733388]},"properties":{"objectid":2918,"pcode":"SDNs003097","iso3":"SDN","name":"Habillah","name_alt":null,"loc_type":33,"loc_subtype":"***","createdate":1161216000000,"createby":null,"closedate":null,"updatedate":1606986208000,"updateby":"IVANC","source":"UNHCR","unhcr_assist":1,"footnote":"Darfur","comments":null,"status":1,"globalid":"{6EA1EA41-F26E-41AE-8BE6-5D20DC9CBE0F}"}},{"type":"Feature","id":2923,"geometry":{"type":"Point","coordinates":[31.251000000174358,30.078000000166551]},"properties":{"objectid":2923,"pcode":"EGYs003139","iso3":"EGY","name":"Greater Cairo","name_alt":null,"loc_type":39,"loc_subtype":"***","createdate":1165536000000,"createby":null,"closedate":null,"updatedate":1606986208000,"updateby":"IVANC","source":"UNHCR","unhcr_assist":1,"footnote":null,"comments":null,"status":1,"globalid":"{B864613D-5822-4CE2-8196-6E889548CB29}"}},{"type":"Feature","id":2924,"geometry":{"type":"Point","coordinates":[11.518999999571347,3.8710000002621143]},"properties":{"objectid":2924,"pcode":"CMRs003199","iso3":"CMR","name":"Yaounde","name_alt":null,"loc_type":39,"loc_subtype":"***","createdate":1165536000000,"createby":null,"closedate":null,"updatedate":1606986208000,"updateby":"IVANC","source":"UNHCR","unhcr_assist":1,"footnote":"RE-2014-CAF","comments":null,"status":1,"globalid":"{DD8F6C26-896D-41E4-8CB0-8F4A8A623D20}"}},{"type":"Feature","id":2928,"geometry":{"type":"Point","coordinates":[74.572999999759347,42.863999999730176]},"properties":{"objectid":2928,"pcode":"KGZs003281","iso3":"KGZ","name":"Bishkek","name_alt":null,"loc_type":39,"loc_subtype":"***","createdate":1165536000000,"createby":null,"closedate":null,"updatedate":1606986208000,"updateby":"IVANC","source":"UNHCR","unhcr_assist":1,"footnote":null,"comments":null,"status":1,"globalid":"{145FC981-8FBA-4ED5-8FFF-9FEDC1717B0E}"}},{"type":"Feature","id":2929,"geometry":{"type":"Point","coordinates":[72.789999999619269,40.52944000000705]},"properties":{"objectid":2929,"pcode":"KGZs003282","iso3":"KGZ","name":"Osh","name_alt":null,"loc_type":39,"loc_subtype":"***","createdate":1165536000000,"createby":null,"closedate":null,"updatedate":1606986208000,"updateby":"IVANC","source":"UNHCR","unhcr_assist":1,"footnote":null,"comments":null,"status":1,"globalid":"{E18DEC55-2A79-43A4-8910-7CD7FDE29400}"}},{"type":"Feature","id":2930,"geometry":{"type":"Point","coordinates":[-15.980000000211012,18.085999999625283]},"properties":{"objectid":2930,"pcode":"MRTs003289","iso3":"MRT","name":"Nouakchott","name_alt":null,"loc_type":39,"loc_subtype":"***","createdate":1165536000000,"createby":null,"closedate":null,"updatedate":1606986208000,"updateby":"IVANC","source":"UNHCR","unhcr_assist":1,"footnote":null,"comments":null,"status":1,"globalid":"{12F56A48-2057-41C1-BE96-0D4997676FF0}"}},{"type":"Feature","id":2931,"geometry":{"type":"Point","coordinates":[58.538000000389431,23.602000000391349]},"properties":{"objectid":2931,"pcode":"OMNs003320","iso3":"OMN","name":"Muscat","name_alt":null,"loc_type":39,"loc_subtype":"***","createdate":1165536000000,"createby":null,"closedate":null,"updatedate":1606986208000,"updateby":"IVANC","source":"UNHCR","unhcr_assist":1,"footnote":null,"comments":null,"status":1,"globalid":"{D7577977-E590-4412-9CF0-3925BB312957}"}},{"type":"Feature","id":2932,"geometry":{"type":"Point","coordinates":[51.506000000014836,25.296000000090721]},"properties":{"objectid":2932,"pcode":"QATs003328","iso3":"QAT","name":"Doha","name_alt":null,"loc_type":39,"loc_subtype":"***","createdate":1165536000000,"createby":null,"closedate":null,"updatedate":1606986208000,"updateby":"IVANC","source":"UNHCR","unhcr_assist":1,"footnote":null,"comments":null,"status":1,"globalid":"{98095CA2-12C9-4200-BF18-EE7058FC80BA}"}},{"type":"Feature","id":2933,"geometry":{"type":"Point","coordinates":[42.551110000102675,16.889170000244476]},"properties":{"objectid":2933,"pcode":"SAUs003351","iso3":"SAU","name":"Gizan","name_alt":null,"loc_type":39,"loc_subtype":"***","createdate":1165536000000,"createby":null,"closedate":null,"updatedate":1606986208000,"updateby":"IVANC","source":"UNHCR","unhcr_assist":1,"footnote":null,"comments":null,"status":1,"globalid":"{5415D73E-13EC-43FF-9DBF-55151B015E02}"}},{"type":"Feature","id":2934,"geometry":{"type":"Point","coordinates":[39.219169999687111,21.516939999759419]},"properties":{"objectid":2934,"pcode":"SAUs003352","iso3":"SAU","name":"Jeddah","name_alt":null,"loc_type":39,"loc_subtype":"***","createdate":1165536000000,"createby":null,"closedate":null,"updatedate":1606986208000,"updateby":"IVANC","source":"UNHCR","unhcr_assist":1,"footnote":null,"comments":null,"status":1,"globalid":"{E458AADA-7927-4901-B271-10F1C9969E8D}"}},{"type":"Feature","id":2935,"geometry":{"type":"Point","coordinates":[50.208330000173916,26.279440000207401]},"properties":{"objectid":2935,"pcode":"SAUs003353","iso3":"SAU","name":"Khobar","name_alt":null,"loc_type":39,"loc_subtype":"***","createdate":1165536000000,"createby":null,"closedate":null,"updatedate":1606986208000,"updateby":"IVANC","source":"UNHCR","unhcr_assist":1,"footnote":null,"comments":null,"status":1,"globalid":"{0004C57F-5FE1-4F01-8AFB-DD44829D0256}"}},{"type":"Feature","id":2936,"geometry":{"type":"Point","coordinates":[41.333330000086782,20.666669999720977]},"properties":{"objectid":2936,"pcode":"SAUs003354","iso3":"SAU","name":"Makkah","name_alt":null,"loc_type":39,"loc_subtype":"***","createdate":1165536000000,"createby":null,"closedate":null,"updatedate":1606986208000,"updateby":"IVANC","source":"UNHCR","unhcr_assist":1,"footnote":null,"comments":null,"status":1,"globalid":"{6E0E96FE-44BE-42D0-A63E-050FDA4F65C3}"}},{"type":"Feature","id":2937,"geometry":{"type":"Point","coordinates":[46.772780000127469,24.640830000294258]},"properties":{"objectid":2937,"pcode":"SAUs003355","iso3":"SAU","name":"Riyadh","name_alt":null,"loc_type":39,"loc_subtype":"***","createdate":1165536000000,"createby":null,"closedate":null,"updatedate":1606986208000,"updateby":"IVANC","source":"UNHCR","unhcr_assist":1,"footnote":null,"comments":null,"status":1,"globalid":"{FDC4A82D-8699-4AAE-8CEF-14AB6F9F2064}"}},{"type":"Feature","id":2939,"geometry":{"type":"Point","coordinates":[68.777000000099008,38.569999999804722]},"properties":{"objectid":2939,"pcode":"TJKs003376","iso3":"TJK","name":"Dushanbe","name_alt":null,"loc_type":39,"loc_subtype":"***","createdate":1165536000000,"createby":null,"closedate":null,"updatedate":1606986208000,"updateby":"IVANC","source":"UNHCR","unhcr_assist":1,"footnote":null,"comments":null,"status":1,"globalid":"{25B13310-3AAD-4DC0-8AB2-9EEB7E105C34}"}},{"type":"Feature","id":2940,"geometry":{"type":"Point","coordinates":[69.625000000164647,40.286999999731165]},"properties":{"objectid":2940,"pcode":"TJKs003377","iso3":"TJK","name":"Khujand","name_alt":null,"loc_type":39,"loc_subtype":"***","createdate":1165536000000,"createby":null,"closedate":null,"updatedate":1606986208000,"updateby":"IVANC","source":"UNHCR","unhcr_assist":1,"footnote":null,"comments":null,"status":1,"globalid":"{B2ED77AD-9A22-41CE-91E7-2E9B0CE148F1}"}},{"type":"Feature","id":2944,"geometry":{"type":"Point","coordinates":[72.343889999958733,40.783060000093293]},"properties":{"objectid":2944,"pcode":"UZBs003424","iso3":"UZB","name":"Andijan","name_alt":null,"loc_type":39,"loc_subtype":"***","createdate":1165536000000,"createby":null,"closedate":null,"updatedate":1606986208000,"updateby":"IVANC","source":"UNHCR","unhcr_assist":1,"footnote":null,"comments":null,"status":1,"globalid":"{E9632154-8D37-4CAA-8A5A-551717358F36}"}},{"type":"Feature","id":2946,"geometry":{"type":"Point","coordinates":[71.780999999712805,40.39100000012607]},"properties":{"objectid":2946,"pcode":"UZBs003426","iso3":"UZB","name":"Fergana","name_alt":null,"loc_type":39,"loc_subtype":"***","createdate":1165536000000,"createby":null,"closedate":null,"updatedate":1606986208000,"updateby":"IVANC","source":"UNHCR","unhcr_assist":1,"footnote":null,"comments":null,"status":1,"globalid":"{14C9D7C1-10D2-48D3-9A2E-259DF9911400}"}},{"type":"Feature","id":2947,"geometry":{"type":"Point","coordinates":[71.672500000171567,40.995280000332549]},"properties":{"objectid":2947,"pcode":"UZBs003427","iso3":"UZB","name":"Namangan","name_alt":null,"loc_type":39,"loc_subtype":"***","createdate":1165536000000,"createby":null,"closedate":null,"updatedate":1606986208000,"updateby":"IVANC","source":"UNHCR","unhcr_assist":1,"footnote":null,"comments":null,"status":1,"globalid":"{FF6E2511-ABAF-4CE4-9E0F-3D3B3DBDE7FE}"}},{"type":"Feature","id":2949,"geometry":{"type":"Point","coordinates":[69.294999999821314,41.310999999798838]},"properties":{"objectid":2949,"pcode":"UZBs003429","iso3":"UZB","name":"Tashkent","name_alt":null,"loc_type":39,"loc_subtype":"***","createdate":1165536000000,"createby":null,"closedate":null,"updatedate":1606986208000,"updateby":"IVANC","source":"UNHCR","unhcr_assist":1,"footnote":null,"comments":null,"status":1,"globalid":"{D6D13440-BC2B-4C1A-A925-766D69C20763}"}},{"type":"Feature","id":2951,"geometry":{"type":"Point","coordinates":[45.034000000141184,12.807000000008028]},"properties":{"objectid":2951,"pcode":"YEMs003435","iso3":"YEM","name":"Aden","name_alt":null,"loc_type":39,"loc_subtype":"***","createdate":1165536000000,"createby":null,"closedate":null,"updatedate":1606986208000,"updateby":"IVANC","source":"UNHCR","unhcr_assist":1,"footnote":null,"comments":null,"status":1,"globalid":"{413880E5-CDA6-4472-B317-A11DBDD94600}"}},{"type":"Feature","id":2952,"geometry":{"type":"Point","coordinates":[71.786099999685447,35.108900000107027]},"properties":{"objectid":2952,"pcode":"PAKs003445","iso3":"PAK","name":"Barawal","name_alt":null,"loc_type":35,"loc_subtype":"***","createdate":1202083200000,"createby":null,"closedate":null,"updatedate":1606986208000,"updateby":"IVANC","source":"UNHCR","unhcr_assist":1,"footnote":"Refugee village","comments":"Peshawar","status":1,"globalid":"{0AE933A6-923F-425C-8736-CA8CE378F21E}"}},{"type":"Feature","id":2956,"geometry":{"type":"Point","coordinates":[71.861800000107195,34.841199999925649]},"properties":{"objectid":2956,"pcode":"PAKs003449","iso3":"PAK","name":"Temer","name_alt":null,"loc_type":35,"loc_subtype":"***","createdate":1266537600000,"createby":null,"closedate":null,"updatedate":1606986208000,"updateby":"IVANC","source":"UNHCR","unhcr_assist":1,"footnote":"Refugee village","comments":"Peshawar","status":1,"globalid":"{A89B98C9-51B2-43F4-A042-6C45D4C7C09D}"}},{"type":"Feature","id":2957,"geometry":{"type":"Point","coordinates":[71.672599999730693,34.860299999929786]},"properties":{"objectid":2957,"pcode":"PAKs003450","iso3":"PAK","name":"Toor","name_alt":null,"loc_type":35,"loc_subtype":"***","createdate":1202083200000,"createby":null,"closedate":null,"updatedate":1606986208000,"updateby":"IVANC","source":"UNHCR","unhcr_assist":1,"footnote":"Refugee village","comments":"Peshawar","status":1,"globalid":"{C3A14339-9658-42ED-93CE-1991EE968987}"}},{"type":"Feature","id":3635,"geometry":{"type":"Point","coordinates":[21.022767999774288,52.260879000061777]},"properties":{"objectid":3635,"pcode":"POLs002307","iso3":"POL","name":"Warszawa","name_alt":null,"loc_type":27,"loc_subtype":null,"createdate":1036108800000,"createby":null,"closedate":null,"updatedate":1606986208000,"updateby":"IVANC","source":"UNHCR","unhcr_assist":1,"footnote":null,"comments":null,"status":1,"globalid":"{DBF3D441-3D20-4F77-B920-7B82590A5F0D}"}},{"type":"Feature","id":2961,"geometry":{"type":"Point","coordinates":[70.729399999876378,33.022199999625172]},"properties":{"objectid":2961,"pcode":"PAKs003456","iso3":"PAK","name":"Bizen Khel","name_alt":null,"loc_type":35,"loc_subtype":"***","createdate":1266537600000,"createby":null,"closedate":null,"updatedate":1606986208000,"updateby":"IVANC","source":"UNHCR","unhcr_assist":1,"footnote":"Refugee village","comments":"Peshawar","status":1,"globalid":"{A661D3F5-0C81-409A-8B41-E6462C6B94A7}"}},{"type":"Feature","id":2963,"geometry":{"type":"Point","coordinates":[70.778899999927859,32.753000000339995]},"properties":{"objectid":2963,"pcode":"PAKs003458","iso3":"PAK","name":"Ghandi Khan Khel","name_alt":null,"loc_type":35,"loc_subtype":"***","createdate":1202083200000,"createby":null,"closedate":null,"updatedate":1606986208000,"updateby":"IVANC","source":"UNHCR","unhcr_assist":1,"footnote":"Refugee village","comments":"Peshawar","status":1,"globalid":"{0A03259E-4B1A-445C-A516-F1451DB76222}"}},{"type":"Feature","id":2967,"geometry":{"type":"Point","coordinates":[49.126999999989671,14.544000000177959]},"properties":{"objectid":2967,"pcode":"YEMs003440","iso3":"YEM","name":"Al Mukalla","name_alt":null,"loc_type":39,"loc_subtype":"***","createdate":1165536000000,"createby":null,"closedate":null,"updatedate":1606986208000,"updateby":"IVANC","source":"UNHCR","unhcr_assist":1,"footnote":null,"comments":null,"status":1,"globalid":"{1EDF4F76-8E83-43CB-9829-35ED0875BE13}"}},{"type":"Feature","id":2972,"geometry":{"type":"Point","coordinates":[71.724000000388472,33.854399999756836]},"properties":{"objectid":2972,"pcode":"PAKs003467","iso3":"PAK","name":"Shamshatoo","name_alt":null,"loc_type":35,"loc_subtype":"***","createdate":1202083200000,"createby":null,"closedate":null,"updatedate":1606986208000,"updateby":"IVANC","source":"UNHCR","unhcr_assist":1,"footnote":"Refugee village","comments":"Peshawar","status":1,"globalid":"{8FA501DC-788B-4932-98DA-A394287EB886}"}},{"type":"Feature","id":2973,"geometry":{"type":"Point","coordinates":[71.700000000200191,33.916699999814284]},"properties":{"objectid":2973,"pcode":"PAKs003468","iso3":"PAK","name":"Mera Kachori","name_alt":null,"loc_type":35,"loc_subtype":"***","createdate":1202083200000,"createby":null,"closedate":null,"updatedate":1606986208000,"updateby":"IVANC","source":"UNHCR","unhcr_assist":1,"footnote":"Refugee village","comments":"Peshawar","status":1,"globalid":"{C4AC509C-FD96-4AC3-8A77-46062979C1F3}"}},{"type":"Feature","id":2975,"geometry":{"type":"Point","coordinates":[71.600000000014504,34.166700000019326]},"properties":{"objectid":2975,"pcode":"PAKs003472","iso3":"PAK","name":"Hajizai","name_alt":null,"loc_type":35,"loc_subtype":"***","createdate":1256774400000,"createby":null,"closedate":null,"updatedate":1606986208000,"updateby":"IVANC","source":"UNHCR","unhcr_assist":1,"footnote":"Refugee village","comments":"Peshawar","status":1,"globalid":"{EC220252-8D55-4AA0-8364-ADB4F2BE2340}"}},{"type":"Feature","id":2976,"geometry":{"type":"Point","coordinates":[71.766699999877574,34.18329999988898]},"properties":{"objectid":2976,"pcode":"PAKs003473","iso3":"PAK","name":"Utmanzai","name_alt":null,"loc_type":35,"loc_subtype":"***","createdate":1202083200000,"createby":null,"closedate":null,"updatedate":1606986208000,"updateby":"IVANC","source":"UNHCR","unhcr_assist":1,"footnote":"Refugee village","comments":"Peshawar","status":1,"globalid":"{A4C96023-1740-4EE7-B5F3-FDECB4FFF9D7}"}},{"type":"Feature","id":2978,"geometry":{"type":"Point","coordinates":[71.616700000048183,34.133300000342032]},"properties":{"objectid":2978,"pcode":"PAKs003477","iso3":"PAK","name":"Naguman","name_alt":null,"loc_type":35,"loc_subtype":"***","createdate":1202083200000,"createby":null,"closedate":null,"updatedate":1606986208000,"updateby":"IVANC","source":"UNHCR","unhcr_assist":1,"footnote":"Refugee village","comments":"Peshawar","status":1,"globalid":"{EA9B4EB9-E0C3-4343-9E0F-002C4070648D}"}},{"type":"Feature","id":2979,"geometry":{"type":"Point","coordinates":[71.383299999609363,33.649999999974824]},"properties":{"objectid":2979,"pcode":"PAKs003478","iso3":"PAK","name":"Oblan","name_alt":null,"loc_type":35,"loc_subtype":"***","createdate":1202083200000,"createby":null,"closedate":null,"updatedate":1606986208000,"updateby":"IVANC","source":"UNHCR","unhcr_assist":1,"footnote":"Refugee village","comments":"Peshawar","status":1,"globalid":"{D1B4E2DC-7C93-4C1B-A477-57F924276DFB}"}},{"type":"Feature","id":2980,"geometry":{"type":"Point","coordinates":[71.366700000033092,33.466700000113576]},"properties":{"objectid":2980,"pcode":"PAKs003479","iso3":"PAK","name":"Chichana","name_alt":null,"loc_type":35,"loc_subtype":"***","createdate":1202083200000,"createby":null,"closedate":null,"updatedate":1606986208000,"updateby":"IVANC","source":"UNHCR","unhcr_assist":1,"footnote":"Refugee village","comments":"Peshawar","status":1,"globalid":"{7D380D9D-0D97-495E-A602-80B772E3F2DB}"}},{"type":"Feature","id":2981,"geometry":{"type":"Point","coordinates":[71.433300000151391,33.60000000029325]},"properties":{"objectid":2981,"pcode":"PAKs003480","iso3":"PAK","name":"Ghulam Banda","name_alt":null,"loc_type":35,"loc_subtype":"***","createdate":1202083200000,"createby":null,"closedate":null,"updatedate":1606986208000,"updateby":"IVANC","source":"UNHCR","unhcr_assist":1,"footnote":"Refugee village","comments":"Peshawar","status":1,"globalid":"{A88868FD-DCEA-47B9-95AF-FAB2EAB5E4F5}"}},{"type":"Feature","id":2984,"geometry":{"type":"Point","coordinates":[71.050000000340575,33.466700000113576]},"properties":{"objectid":2984,"pcode":"PAKs003483","iso3":"PAK","name":"Kata Kanri","name_alt":null,"loc_type":35,"loc_subtype":"***","createdate":1202083200000,"createby":null,"closedate":null,"updatedate":1606986208000,"updateby":"IVANC","source":"UNHCR","unhcr_assist":1,"footnote":"Refugee village","comments":"Peshawar","status":1,"globalid":"{0881CBFE-541F-45EB-98D9-0CFB61481952}"}},{"type":"Feature","id":2986,"geometry":{"type":"Point","coordinates":[70.916699999646568,33.400000000004582]},"properties":{"objectid":2986,"pcode":"PAKs003485","iso3":"PAK","name":"Kahi","name_alt":null,"loc_type":35,"loc_subtype":"***","createdate":1256774400000,"createby":null,"closedate":null,"updatedate":1606986208000,"updateby":"IVANC","source":"UNHCR","unhcr_assist":1,"footnote":"Refugee village","comments":null,"status":1,"globalid":"{86792933-0412-444E-9962-FF74F72011AA}"}},{"type":"Feature","id":2987,"geometry":{"type":"Point","coordinates":[71.116700000017971,33.499999999657312]},"properties":{"objectid":2987,"pcode":"PAKs003486","iso3":"PAK","name":"Lakti Banda","name_alt":null,"loc_type":35,"loc_subtype":"***","createdate":1202083200000,"createby":null,"closedate":null,"updatedate":1606986208000,"updateby":"IVANC","source":"UNHCR","unhcr_assist":1,"footnote":"Refugee village","comments":"Peshawar","status":1,"globalid":"{F0316505-57EA-48D4-B56D-037C4BE00937}"}},{"type":"Feature","id":2990,"geometry":{"type":"Point","coordinates":[70.616699999987745,33.416700000161121]},"properties":{"objectid":2990,"pcode":"PAKs003489","iso3":"PAK","name":"Darsamand 1&2","name_alt":null,"loc_type":35,"loc_subtype":"***","createdate":1266537600000,"createby":null,"closedate":null,"updatedate":1606986208000,"updateby":"IVANC","source":"UNHCR","unhcr_assist":1,"footnote":"Refugee village","comments":"Peshawar","status":1,"globalid":"{411A88DB-7008-4EB6-B9A7-98FA732BAB18}"}},{"type":"Feature","id":2991,"geometry":{"type":"Point","coordinates":[70.533300000276654,33.383300000105002]},"properties":{"objectid":2991,"pcode":"PAKs003490","iso3":"PAK","name":"Thall","name_alt":null,"loc_type":35,"loc_subtype":"***","createdate":1202083200000,"createby":null,"closedate":null,"updatedate":1606986208000,"updateby":"IVANC","source":"UNHCR","unhcr_assist":1,"footnote":"Refugee village","comments":"Peshawar","status":1,"globalid":"{F6F271B2-8790-447B-96B3-181FAFCC576D}"}},{"type":"Feature","id":2993,"geometry":{"type":"Point","coordinates":[71.966700000249006,34.483299999726938]},"properties":{"objectid":2993,"pcode":"PAKs003493","iso3":"PAK","name":"Zangal patai","name_alt":null,"loc_type":35,"loc_subtype":"***","createdate":1202083200000,"createby":null,"closedate":null,"updatedate":1606986208000,"updateby":"IVANC","source":"UNHCR","unhcr_assist":1,"footnote":"Refugee village","comments":"Peshawar","status":1,"globalid":"{5672235C-3F0C-4720-AE84-DA195BCAA0AA}"}},{"type":"Feature","id":2994,"geometry":{"type":"Point","coordinates":[72.083300000010993,34.216699999778527]},"properties":{"objectid":2994,"pcode":"PAKs003494","iso3":"PAK","name":"Baghicha","name_alt":null,"loc_type":35,"loc_subtype":"***","createdate":1202083200000,"createby":null,"closedate":null,"updatedate":1606986208000,"updateby":"IVANC","source":"UNHCR","unhcr_assist":1,"footnote":"Refugee village","comments":"Peshawar","status":1,"globalid":"{BAE78886-CED7-4966-A0DA-A2C680437784}"}},{"type":"Feature","id":2995,"geometry":{"type":"Point","coordinates":[71.916699999707006,34.333300000039308]},"properties":{"objectid":2995,"pcode":"PAKs003496","iso3":"PAK","name":"Jalala","name_alt":null,"loc_type":35,"loc_subtype":"***","createdate":1266537600000,"createby":null,"closedate":null,"updatedate":1606986208000,"updateby":"IVANC","source":"UNHCR","unhcr_assist":1,"footnote":"Refugee village","comments":"Peshawar","status":1,"globalid":"{FC7D70A9-8D38-4C76-8B48-E2A05CA21E52}"}},{"type":"Feature","id":2996,"geometry":{"type":"Point","coordinates":[72.416699999737219,34.133300000342032]},"properties":{"objectid":2996,"pcode":"PAKs003497","iso3":"PAK","name":"Barakai","name_alt":null,"loc_type":35,"loc_subtype":"***","createdate":1202083200000,"createby":null,"closedate":null,"updatedate":1606986208000,"updateby":"IVANC","source":"UNHCR","unhcr_assist":1,"footnote":"Refugee village","comments":"Peshawar","status":1,"globalid":"{60CB9A85-2B79-492B-AA02-AA9BF7A4DBF8}"}},{"type":"Feature","id":2997,"geometry":{"type":"Point","coordinates":[72.71670000029431,34.316700000063172]},"properties":{"objectid":2997,"pcode":"PAKs003498","iso3":"PAK","name":"Gandaf","name_alt":null,"loc_type":35,"loc_subtype":"***","createdate":1202083200000,"createby":null,"closedate":null,"updatedate":1606986208000,"updateby":"IVANC","source":"UNHCR","unhcr_assist":1,"footnote":"Refugee village","comments":"Peshawar","status":1,"globalid":"{FF2F5F66-5160-41D9-BA0A-4DCD66465BAC}"}},{"type":"Feature","id":2999,"geometry":{"type":"Point","coordinates":[72.933300000241999,34.050000000113549]},"properties":{"objectid":2999,"pcode":"PAKs003500","iso3":"PAK","name":"Padhana","name_alt":null,"loc_type":35,"loc_subtype":"***","createdate":1202083200000,"createby":null,"closedate":null,"updatedate":1606986208000,"updateby":"IVANC","source":"UNHCR","unhcr_assist":1,"footnote":"Refugee village","comments":"Peshawar","status":1,"globalid":"{AC8B8B7F-8194-4DFE-899E-C2F84CC0FD65}"}},{"type":"Feature","id":3000,"geometry":{"type":"Point","coordinates":[73.18330000025712,34.350000000175029]},"properties":{"objectid":3000,"pcode":"PAKs003501","iso3":"PAK","name":"Berari","name_alt":null,"loc_type":35,"loc_subtype":"***","createdate":1266537600000,"createby":null,"closedate":null,"updatedate":1606986208000,"updateby":"IVANC","source":"UNHCR","unhcr_assist":1,"footnote":"Refugee village","comments":"Peshawar","status":1,"globalid":"{7E698B3D-D0C1-4F13-95BB-B010EE2EEF01}"}},{"type":"Feature","id":3002,"geometry":{"type":"Point","coordinates":[73.18330000025712,34.516699999729241]},"properties":{"objectid":3002,"pcode":"PAKs003503","iso3":"PAK","name":"Ichrian","name_alt":null,"loc_type":35,"loc_subtype":"***","createdate":1202083200000,"createby":null,"closedate":null,"updatedate":1606986208000,"updateby":"IVANC","source":"UNHCR","unhcr_assist":1,"footnote":"Refugee village","comments":"Peshawar","status":1,"globalid":"{3F888651-B12A-48EF-BBF0-8526B9D3FD0D}"}},{"type":"Feature","id":3003,"geometry":{"type":"Point","coordinates":[73.133299999715092,34.416699999812806]},"properties":{"objectid":3003,"pcode":"PAKs003504","iso3":"PAK","name":"Khaki","name_alt":null,"loc_type":35,"loc_subtype":"***","createdate":1202083200000,"createby":null,"closedate":null,"updatedate":1606986208000,"updateby":"IVANC","source":"UNHCR","unhcr_assist":1,"footnote":"Refugee village","comments":"Peshawar","status":1,"globalid":"{BC2B8AFE-EA1B-4BAE-8BD4-B7F337911830}"}},{"type":"Feature","id":3006,"geometry":{"type":"Point","coordinates":[71.800000000385893,35.766700000292879]},"properties":{"objectid":3006,"pcode":"PAKs003508","iso3":"PAK","name":"Kalkatak","name_alt":null,"loc_type":35,"loc_subtype":"***","createdate":1202083200000,"createby":null,"closedate":null,"updatedate":1606986208000,"updateby":"IVANC","source":"UNHCR","unhcr_assist":1,"footnote":"Refugee village","comments":"Peshawar","status":1,"globalid":"{76E355E7-7347-4B65-B708-46AC1A567DF8}"}},{"type":"Feature","id":3008,"geometry":{"type":"Point","coordinates":[72.84920000002387,34.053500000364053]},"properties":{"objectid":3008,"pcode":"PAKs003511","iso3":"PAK","name":"Basu Mera","name_alt":null,"loc_type":35,"loc_subtype":"***","createdate":1202083200000,"createby":null,"closedate":null,"updatedate":1606986208000,"updateby":"IVANC","source":"UNHCR","unhcr_assist":1,"footnote":"Refugee village","comments":"Peshawar","status":1,"globalid":"{CDED7091-9B9B-4C45-9190-1CCE8371FB54}"}},{"type":"Feature","id":3009,"geometry":{"type":"Point","coordinates":[71.457199999882249,33.619300000301592]},"properties":{"objectid":3009,"pcode":"PAKs003512","iso3":"PAK","name":"Gamkol","name_alt":null,"loc_type":35,"loc_subtype":"***","createdate":1202083200000,"createby":null,"closedate":null,"updatedate":1606986208000,"updateby":"IVANC","source":"UNHCR","unhcr_assist":1,"footnote":"Refugee village","comments":"Peshawar","status":1,"globalid":"{8CD053BA-B3ED-497B-AE10-491B0D302ACD}"}},{"type":"Feature","id":3012,"geometry":{"type":"Point","coordinates":[72.138199999610777,33.975200000262291]},"properties":{"objectid":3012,"pcode":"PAKs003515","iso3":"PAK","name":"Khairabad","name_alt":null,"loc_type":35,"loc_subtype":"***","createdate":1202083200000,"createby":null,"closedate":null,"updatedate":1606986208000,"updateby":"IVANC","source":"UNHCR","unhcr_assist":1,"footnote":"Refugee village","comments":"Peshawar","status":1,"globalid":"{D04F11DD-C678-4331-AFC9-00130237AE2B}"}},{"type":"Feature","id":3014,"geometry":{"type":"Point","coordinates":[74.399500000232152,31.339200000239078]},"properties":{"objectid":3014,"pcode":"PAKs003566","iso3":"PAK","name":"Lahore","name_alt":null,"loc_type":39,"loc_subtype":"***","createdate":null,"createby":null,"closedate":null,"updatedate":1606986208000,"updateby":"IVANC","source":"UNHCR","unhcr_assist":1,"footnote":null,"comments":null,"status":1,"globalid":"{EBA4E596-E43B-480D-990E-1C3976029C6D}"}},{"type":"Feature","id":3015,"geometry":{"type":"Point","coordinates":[72.02860000042773,34.669099999702794]},"properties":{"objectid":3015,"pcode":"PAKs003516","iso3":"PAK","name":"Chakdara","name_alt":null,"loc_type":35,"loc_subtype":"***","createdate":1202083200000,"createby":null,"closedate":null,"updatedate":1606986208000,"updateby":"IVANC","source":"UNHCR","unhcr_assist":1,"footnote":"Refugee village","comments":"Peshawar","status":1,"globalid":"{D12730D3-1649-4EF6-BA10-AADCA7E8B3B3}"}},{"type":"Feature","id":3016,"geometry":{"type":"Point","coordinates":[64.694651000282562,29.34911400003238]},"properties":{"objectid":3016,"pcode":"PAKs003517","iso3":"PAK","name":"Chagai","name_alt":null,"loc_type":35,"loc_subtype":"***","createdate":1202083200000,"createby":null,"closedate":null,"updatedate":1606986208000,"updateby":"IVANC","source":"UNHCR","unhcr_assist":1,"footnote":"Refugee village","comments":"Quetta","status":1,"globalid":"{0E3E02B9-FB8D-46AE-88F4-40580CC7ED5F}"}},{"type":"Feature","id":3017,"geometry":{"type":"Point","coordinates":[68.435906000032915,30.391057999981111]},"properties":{"objectid":3017,"pcode":"PAKs003518","iso3":"PAK","name":"Ghazgai Minara","name_alt":null,"loc_type":35,"loc_subtype":"***","createdate":1202083200000,"createby":null,"closedate":null,"updatedate":1606986208000,"updateby":"IVANC","source":"UNHCR","unhcr_assist":1,"footnote":"Refugee village","comments":"Quetta","status":1,"globalid":"{5D17C9E8-91FD-4D13-AE3C-411459301EDF}"}},{"type":"Feature","id":3019,"geometry":{"type":"Point","coordinates":[64.682159000093804,29.416596999626496]},"properties":{"objectid":3019,"pcode":"PAKs003521","iso3":"PAK","name":"Lejay Karez","name_alt":null,"loc_type":35,"loc_subtype":"***","createdate":1202083200000,"createby":null,"closedate":null,"updatedate":1606986208000,"updateby":"IVANC","source":"UNHCR","unhcr_assist":1,"footnote":"Refugee village","comments":"Quetta","status":1,"globalid":"{AB4053AC-CA61-487E-B1A1-21EAA8F5A36C}"}},{"type":"Feature","id":3020,"geometry":{"type":"Point","coordinates":[67.922541999777792,30.799662000185226]},"properties":{"objectid":3020,"pcode":"PAKs003522","iso3":"PAK","name":"Malgagai","name_alt":null,"loc_type":35,"loc_subtype":"***","createdate":1202083200000,"createby":null,"closedate":null,"updatedate":1606986208000,"updateby":"IVANC","source":"UNHCR","unhcr_assist":1,"footnote":"Refugee village","comments":"Quetta","status":1,"globalid":"{8636452E-B3CA-4020-B55B-AB9D5E508AE5}"}},{"type":"Feature","id":3026,"geometry":{"type":"Point","coordinates":[30.464752999974362,3.9466619999705639]},"properties":{"objectid":3026,"pcode":"SSDs003967","iso3":"SSD","name":"Lasu","name_alt":null,"loc_type":29,"loc_subtype":"***","createdate":1244505600000,"createby":null,"closedate":null,"updatedate":1606986208000,"updateby":"IVANC","source":"UNHCR","unhcr_assist":1,"footnote":"South","comments":null,"status":1,"globalid":"{4F96CD2D-F143-4909-A60D-146B6DA34EDE}"}},{"type":"Feature","id":3049,"geometry":{"type":"Point","coordinates":[72.293599999886794,33.425799999749529]},"properties":{"objectid":3049,"pcode":"PAKs003558","iso3":"PAK","name":"Attok","name_alt":null,"loc_type":39,"loc_subtype":"***","createdate":null,"createby":null,"closedate":null,"updatedate":1606986208000,"updateby":"IVANC","source":"UNHCR","unhcr_assist":1,"footnote":null,"comments":null,"status":1,"globalid":"{BD6C0B52-08E7-40EA-A3D8-8076953A489F}"}},{"type":"Feature","id":3050,"geometry":{"type":"Point","coordinates":[72.932700000192398,31.29050000027399]},"properties":{"objectid":3050,"pcode":"PAKs003559","iso3":"PAK","name":"Faisalabad","name_alt":null,"loc_type":39,"loc_subtype":"***","createdate":null,"createby":null,"closedate":null,"updatedate":1606986208000,"updateby":"IVANC","source":"UNHCR","unhcr_assist":1,"footnote":null,"comments":null,"status":1,"globalid":"{9918CF8B-3B4A-42CD-85EE-FD47E13A790C}"}},{"type":"Feature","id":3051,"geometry":{"type":"Point","coordinates":[72.050200000417533,33.984800000256321]},"properties":{"objectid":3051,"pcode":"PAKs003783","iso3":"PAK","name":"Akora Khattak","name_alt":null,"loc_type":35,"loc_subtype":"***","createdate":1202083200000,"createby":null,"closedate":null,"updatedate":1606986208000,"updateby":"IVANC","source":"UNHCR","unhcr_assist":1,"footnote":"Refugee village","comments":"Peshawar","status":1,"globalid":"{F5B26BF6-1F47-48BF-843B-EEC9D3ECECB3}"}},{"type":"Feature","id":3055,"geometry":{"type":"Point","coordinates":[72.611699999695091,32.893100000358693]},"properties":{"objectid":3055,"pcode":"PAKs003567","iso3":"PAK","name":"Sargodha","name_alt":null,"loc_type":39,"loc_subtype":"***","createdate":null,"createby":null,"closedate":null,"updatedate":1606986208000,"updateby":"IVANC","source":"UNHCR","unhcr_assist":1,"footnote":null,"comments":null,"status":1,"globalid":"{434A90AA-A3AE-47A7-BC03-A3EA4E33F84C}"}},{"type":"Feature","id":3058,"geometry":{"type":"Point","coordinates":[62.158670000115627,34.427720000330851]},"properties":{"objectid":3058,"pcode":"AFGs003911","iso3":"AFG","name":"Herat EC","name_alt":null,"loc_type":47,"loc_subtype":"***","createdate":1256774400000,"createby":null,"closedate":null,"updatedate":1606986208000,"updateby":"IVANC","source":"UNHCR","unhcr_assist":1,"footnote":null,"comments":null,"status":1,"globalid":"{28299D30-C7A8-4240-87CF-B6577D451EAB}"}},{"type":"Feature","id":3059,"geometry":{"type":"Point","coordinates":[69.347199999646961,34.543800000028511]},"properties":{"objectid":3059,"pcode":"AFGs003913","iso3":"AFG","name":"Kabul EC","name_alt":null,"loc_type":47,"loc_subtype":"***","createdate":1256774400000,"createby":null,"closedate":null,"updatedate":1606986208000,"updateby":"IVANC","source":"UNHCR","unhcr_assist":1,"footnote":null,"comments":null,"status":1,"globalid":"{6A4930D1-9BE6-482F-9002-BA2362ED86DE}"}},{"type":"Feature","id":3060,"geometry":{"type":"Point","coordinates":[70.560000000239086,34.35999999994204]},"properties":{"objectid":3060,"pcode":"AFGs003914","iso3":"AFG","name":"Samar Khail EC","name_alt":null,"loc_type":47,"loc_subtype":"***","createdate":1256774400000,"createby":null,"closedate":null,"updatedate":1606986208000,"updateby":"IVANC","source":"UNHCR","unhcr_assist":1,"footnote":null,"comments":null,"status":1,"globalid":"{4A8F7FB3-44ED-458F-A661-A29701279996}"}},{"type":"Feature","id":3069,"geometry":{"type":"Point","coordinates":[28.646110999752135,4.8547219998695192]},"properties":{"objectid":3069,"pcode":"SSDs003968","iso3":"SSD","name":"Makpandu","name_alt":null,"loc_type":29,"loc_subtype":"***","createdate":1244505600000,"createby":null,"closedate":null,"updatedate":1606986208000,"updateby":"IVANC","source":"UNHCR","unhcr_assist":1,"footnote":"South","comments":null,"status":1,"globalid":"{BC678638-89B4-4A95-8749-53ADFC04FBA7}"}},{"type":"Feature","id":3078,"geometry":{"type":"Point","coordinates":[27.646000000261925,5.0061480000252576]},"properties":{"objectid":3078,"pcode":"SSDs003996","iso3":"SSD","name":"Andari","name_alt":null,"loc_type":33,"loc_subtype":"***","createdate":1244505600000,"createby":null,"closedate":null,"updatedate":1606986208000,"updateby":"IVANC","source":"UNHCR","unhcr_assist":1,"footnote":"South","comments":null,"status":1,"globalid":"{5CD02A69-864A-4FBA-9E95-6D12B9EC0446}"}},{"type":"Feature","id":3079,"geometry":{"type":"Point","coordinates":[27.828179999968032,4.9927299998494972]},"properties":{"objectid":3079,"pcode":"SSDs003997","iso3":"SSD","name":"Naandi","name_alt":null,"loc_type":33,"loc_subtype":"***","createdate":1244505600000,"createby":null,"closedate":null,"updatedate":1606986208000,"updateby":"IVANC","source":"UNHCR","unhcr_assist":1,"footnote":"South","comments":null,"status":1,"globalid":"{D9DDEE87-B398-4F06-A0F3-C7CB2B6FB192}"}},{"type":"Feature","id":3080,"geometry":{"type":"Point","coordinates":[15.205900000418266,7.1066800003965183]},"properties":{"objectid":3080,"pcode":"CMRs004001","iso3":"CMR","name":"Yamba","name_alt":null,"loc_type":33,"loc_subtype":"***","createdate":1266969600000,"createby":null,"closedate":null,"updatedate":1606986208000,"updateby":"IVANC","source":"UNHCR","unhcr_assist":1,"footnote":"RE-2014-CAF","comments":"Adamaoua","status":1,"globalid":"{A456FD2F-E76D-49AF-8361-868B6E2776A1}"}},{"type":"Feature","id":3081,"geometry":{"type":"Point","coordinates":[14.965799999874479,6.8598500001104776]},"properties":{"objectid":3081,"pcode":"CMRs004003","iso3":"CMR","name":"Ouro-Adde","name_alt":null,"loc_type":33,"loc_subtype":"***","createdate":1266969600000,"createby":null,"closedate":null,"updatedate":1606986208000,"updateby":"IVANC","source":"UNHCR","unhcr_assist":1,"footnote":"RE-2014-CAF","comments":"Adamaoua","status":1,"globalid":"{1D0F8B32-EFEA-416D-872C-E2CBF3E52B0C}"}},{"type":"Feature","id":3082,"geometry":{"type":"Point","coordinates":[14.961900000001073,7.0123000000585929]},"properties":{"objectid":3082,"pcode":"CMRs004004","iso3":"CMR","name":"Yarmbang","name_alt":null,"loc_type":33,"loc_subtype":"***","createdate":1266969600000,"createby":null,"closedate":null,"updatedate":1606986208000,"updateby":"IVANC","source":"UNHCR","unhcr_assist":1,"footnote":"RE-2014-CAF","comments":"Adamaoua","status":1,"globalid":"{00ABC1B7-890C-43AB-B8B7-46AFB535933E}"}},{"type":"Feature","id":3083,"geometry":{"type":"Point","coordinates":[14.949699999890401,6.7497000002861833]},"properties":{"objectid":3083,"pcode":"CMRs004005","iso3":"CMR","name":"Ngaoui","name_alt":null,"loc_type":33,"loc_subtype":"***","createdate":1266969600000,"createby":null,"closedate":null,"updatedate":1606986208000,"updateby":"IVANC","source":"UNHCR","unhcr_assist":1,"footnote":"RE-2014-CAF","comments":"Adamaoua","status":1,"globalid":"{32EB2624-E947-4F77-A59F-A317D8340233}"}},{"type":"Feature","id":3084,"geometry":{"type":"Point","coordinates":[14.889900000334487,6.8114699996419272]},"properties":{"objectid":3084,"pcode":"CMRs004006","iso3":"CMR","name":"Garga Pela","name_alt":null,"loc_type":33,"loc_subtype":"***","createdate":1266969600000,"createby":null,"closedate":null,"updatedate":1606986208000,"updateby":"IVANC","source":"UNHCR","unhcr_assist":1,"footnote":"RE-2014-CAF","comments":"Adamaoua","status":1,"globalid":"{906094EC-04B4-41DF-91C7-05B6377A5061}"}},{"type":"Feature","id":3085,"geometry":{"type":"Point","coordinates":[14.788000000440816,6.6665500000334736]},"properties":{"objectid":3085,"pcode":"CMRs004009","iso3":"CMR","name":"Bafouck","name_alt":null,"loc_type":33,"loc_subtype":"***","createdate":1266969600000,"createby":null,"closedate":null,"updatedate":1606986208000,"updateby":"IVANC","source":"UNHCR","unhcr_assist":1,"footnote":"RE-2014-CAF","comments":"Adamaoua","status":1,"globalid":"{C7E414BC-E823-4040-B665-3C286C20EBD4}"}},{"type":"Feature","id":3086,"geometry":{"type":"Point","coordinates":[14.787099999917208,6.7388499999965097]},"properties":{"objectid":3086,"pcode":"CMRs004010","iso3":"CMR","name":"Mbewe","name_alt":null,"loc_type":33,"loc_subtype":"***","createdate":1266969600000,"createby":null,"closedate":null,"updatedate":1606986208000,"updateby":"IVANC","source":"UNHCR","unhcr_assist":1,"footnote":"RE-2014-CAF","comments":"Adamaoua","status":1,"globalid":"{035074FE-F0F1-4544-9E6F-190535B7AB0C}"}},{"type":"Feature","id":3087,"geometry":{"type":"Point","coordinates":[14.762400000120197,6.8766999998395946]},"properties":{"objectid":3087,"pcode":"CMRs004011","iso3":"CMR","name":"Nabemo","name_alt":null,"loc_type":33,"loc_subtype":"***","createdate":1266969600000,"createby":null,"closedate":null,"updatedate":1606986208000,"updateby":"IVANC","source":"UNHCR","unhcr_assist":1,"footnote":"RE-2015-NGA","comments":"Adamaoua","status":1,"globalid":"{E5CFECE5-121E-47FA-8EB1-803DE124AC96}"}},{"type":"Feature","id":3089,"geometry":{"type":"Point","coordinates":[14.720899999832008,6.3176700003387918]},"properties":{"objectid":3089,"pcode":"CMRs004013","iso3":"CMR","name":"Gbatoua Godole","name_alt":"Batoua Godole","loc_type":33,"loc_subtype":"***","createdate":1266969600000,"createby":null,"closedate":null,"updatedate":1606986208000,"updateby":"IVANC","source":"UNHCR","unhcr_assist":1,"footnote":"RE-2014-CAF","comments":"Adamaoua","status":1,"globalid":"{906AC42C-DF65-415D-9A73-0EC0CF7ED7EE}"}},{"type":"Feature","id":3090,"geometry":{"type":"Point","coordinates":[14.690399999555282,6.8360799998529851]},"properties":{"objectid":3090,"pcode":"CMRs004015","iso3":"CMR","name":"Djohong","name_alt":null,"loc_type":33,"loc_subtype":"***","createdate":1266969600000,"createby":null,"closedate":null,"updatedate":1606986208000,"updateby":"IVANC","source":"UNHCR","unhcr_assist":1,"footnote":"RE-2014-CAF","comments":"Adamaoua","status":1,"globalid":"{7BA73B58-7452-4DE8-8717-E819D8C8EEE0}"}},{"type":"Feature","id":3091,"geometry":{"type":"Point","coordinates":[14.661799999884861,5.1977000003566385]},"properties":{"objectid":3091,"pcode":"CMRs004017","iso3":"CMR","name":"Tocktoyo","name_alt":null,"loc_type":33,"loc_subtype":"***","createdate":1266969600000,"createby":null,"closedate":null,"updatedate":1606986208000,"updateby":"IVANC","source":"UNHCR","unhcr_assist":1,"footnote":"RE-2014-CAF","comments":"Est","status":1,"globalid":"{DFE49B7F-7A7A-4A21-B191-789A2052FF8D}"}},{"type":"Feature","id":3092,"geometry":{"type":"Point","coordinates":[14.600099999722675,6.7334399998700833]},"properties":{"objectid":3092,"pcode":"CMRs004018","iso3":"CMR","name":"Fada","name_alt":null,"loc_type":33,"loc_subtype":"***","createdate":1266969600000,"createby":null,"closedate":null,"updatedate":1606986208000,"updateby":"IVANC","source":"UNHCR","unhcr_assist":1,"footnote":"RE-2014-CAF","comments":"Adamaoua","status":1,"globalid":"{CE09D5E5-6D14-4411-A417-EC9E335CD929}"}},{"type":"Feature","id":3093,"geometry":{"type":"Point","coordinates":[14.59430000014129,4.7092800001352266]},"properties":{"objectid":3093,"pcode":"CMRs004019","iso3":"CMR","name":"Boubara","name_alt":null,"loc_type":33,"loc_subtype":"***","createdate":1266969600000,"createby":null,"closedate":null,"updatedate":1606986208000,"updateby":"IVANC","source":"UNHCR","unhcr_assist":1,"footnote":"RE-2014-CAF","comments":null,"status":1,"globalid":"{D93B6163-2579-4350-89BC-37CAF0CBBCE6}"}},{"type":"Feature","id":3094,"geometry":{"type":"Point","coordinates":[14.583500000146378,6.5666700001050717]},"properties":{"objectid":3094,"pcode":"CMRs004020","iso3":"CMR","name":"Ngazi","name_alt":null,"loc_type":33,"loc_subtype":"***","createdate":1266969600000,"createby":null,"closedate":null,"updatedate":1606986208000,"updateby":"IVANC","source":"UNHCR","unhcr_assist":1,"footnote":"RE-2014-CAF","comments":"Adamaoua","status":1,"globalid":"{AE36896D-7D51-4D19-8F1D-34A41D7AE6C6}"}},{"type":"Feature","id":3095,"geometry":{"type":"Point","coordinates":[14.56350000028889,5.8227199999309551]},"properties":{"objectid":3095,"pcode":"CMRs004021","iso3":"CMR","name":"Yokosire","name_alt":null,"loc_type":33,"loc_subtype":"***","createdate":1266969600000,"createby":null,"closedate":null,"updatedate":1606986208000,"updateby":"IVANC","source":"UNHCR","unhcr_assist":1,"footnote":"RE-2014-CAF","comments":null,"status":1,"globalid":"{DB65A27E-980C-4A3F-A883-5BCE9EB1545A}"}},{"type":"Feature","id":3104,"geometry":{"type":"Point","coordinates":[14.714300000184473,4.6994300001303122]},